name,latitude,longitude
kbyJYJzqEVkEmpc,13.02286004,77.68891136
qbgufTPzZEkxNHV,13.09367482,77.70277883
XWIXkuyDacCmsaE,12.90287865,77.63320683
PWMPzEhgQSIJFtLl,12.8645325,77.7314355
PWMPzEhgQSIJFtL,12.86532117,77.731473
MHveToenbpcMPeW,13.07045602,77.61095505
WItnvWIntfoiilf,13.00235581,77.68354834
DPjNIjFDGUdRaNP,12.9826549,77.59337744
SMLuzwDVgJxZDJm,13.06528184,77.47249963
vAbbuCYbFLCXICj,12.99046323,77.67294948
rLfczOfLhEoRnGZ,12.90993785,77.68557472
edieHBeImKgBQAJ,12.93895913,77.46586954
GOwLhWmXEfYOmVX,12.90129114,77.67374439
orOQKFbRAoHeqcJ,12.88925228,77.59694537
CdWAxHeYVjKBRoq,13.09373823,77.71307804
lqKiDFBZBTWUez,12.9832613,77.67860108
lqKiDFBZBTWXUez,12.98372613,77.67840868
eNmJDTcGphYUOiL,12.90105405,77.72835217
sjislLxiXZmXLXrA,12.87368879,77.50616776
sjislLxiXZmXLXr,12.87407949,77.50552922
PMiOQVrAkdXaIku,12.99914347,77.62427096
tnbuHQPEFCTHbM,12.9908439,77.54405971
KtnbuHQPEFCTHbM,12.99117668,77.54470054
XLAftyVglwWYsGW,12.91219248,77.73902379
rZxvAzqBqmxjOvp,13.08241912,77.497992
zQDGraifUKPvJXrh,12.91248614,77.71990941
zQDGraifUKPvJXr,12.91209029,77.7206106
nDUUMkFmhvWSeKA,12.99938553,77.52447073
pTSAacswfCkLTrH,12.87880896,77.59037238
LnDIkeWZGiDzBbG,12.95153959,77.47294797
ChJfRzoluYXLLJA,12.88827506,77.60459364
SwTyWHAtgBNNwyO,12.98394737,77.65270791
kpkmIKHoUVIufgD,12.9889333,77.61358867
IcpEXtdzmmRLCWr,12.87866622,77.58388551
AjpQlKTWzTIbhZR,12.99508017,77.65264226
fsJxXgslhutMiTc,12.897211,77.54057681
KdyidcbCRDnYnmN,12.87863063,77.61571364
QFXbeahTXokzxXE,12.86595646,77.73823206
IcDAjGOxTMfSHPF,13.0092438,77.47278516
TVAaGCcKLfPKBSc,13.03836496,77.65188766
ZqYiEiXtnNdnMQd,12.89039654,77.5117872
skziWqCsJpYkKUr,13.05053952,77.56446451
EzXfmMXrcmOPODa,13.0945611,77.70123553
osLsWAOQUdGDZYQ,12.99680431,77.67688771
xaxGBTpqceCpeQo,13.08241774,77.48956202
vowfjrCAhFjsuFU,13.09463521,77.67534984
sTPYKDcRDklHquz,13.06009716,77.52928022
hERpHEmvMnatBqq,12.95768668,77.44905194
lwzJQhDNjFeZaGu,13.0839943,77.64385893
ZtGYasvPbFraLKt,12.94126663,77.45607967
scHiTOxyvnkkeoK,13.07936441,77.54146126
kDCpRTCvAAxSHki,12.92046669,77.46194735
IiUaIKLepwZKsK,12.91042244,77.59244421
IiUaIKLepwZlKsK,12.91128729,77.59196144
YThcnZeITZSBWti,13.06170419,77.46981109
UGMWtjvSRqgJVnG,13.01752895,77.62423508
OUidkjxBLedTuHH,13.04162785,77.72598449
izdTHTBEbYaEgOX,13.03365163,77.71765686
PUEPIdrCLOanVoe,12.99804691,77.62951875
AHzXGncOYekvbc,12.90672149,77.70340274
AHzXGncOYekMvbc,12.90589412,77.70314404
wUimqZxiywwEpgW,12.87009716,77.56142216
WmrWTJjSeoDNKrY,13.05255403,77.72506752
PSKniQjkACaYDAF,12.85464227,77.51795987
ldVvnlZYRRQIARe,13.00623614,77.6487661
zXFOuQMpUCQNvwN,13.00147581,77.55459404
cfCcavzCtxehzgB,13.01635107,77.7140458
bYYGjWYrhFUbeMw,13.09147894,77.64326137
RDRnTMfmYfSiWLa,12.87342627,77.59219469
DkRreiaFouYeugQi,13.02865939,77.50803626
DkRreiaFouYeugQ,13.02849588,77.50866651
UhTpjPyNxMNPLTu,12.96433664,77.61389929
ZMBcVAKMKMvEWGe,13.08047196,77.54533922
FJPspVZZjtCpGhD,12.96395796,77.58372001
VVYyShvmxawkABS,12.99987048,77.55501223
FtLcazuLGZorHIp,12.90432594,77.56540886
QXhfUHXfnEuMLzK,12.86915746,77.55454983
MOevNigvbIPFlIw,12.90516803,77.53557985
yedOHCLujmIAmrw,12.87589629,77.53438208
yEBaScGavnPNhaO,12.98390381,77.67301246
gbxCPStfxHtqGPj,12.89011083,77.69536264
xUkXBAtfaYztalY,12.86661776,77.70629123
LkdKFkvwYOizHhG,13.07524687,77.67856557
aXvBGKUTNkPDxiFC,12.98073315,77.5255609
aXvBGKUTNkPDxiF,12.98167558,77.52547079
SdxKQfPDkfXEQK,12.9300119,77.64535691
SGdxKQfPDkfXEQK,12.92977862,77.64581473
rkWeIcJsMGhJvVj,12.90985126,77.58992159
faGJXWFYNHSPmtc,12.92943032,77.50693087
QZWPyfoWhsGVegx,12.96152179,77.57741533
gimvnlEtvGcieTP,12.85855872,77.51094535
kUeXLNDvRBgMgJ,12.90268571,77.46886737
kUeXLNDkvRBgMgJ,12.90363218,77.46820674
zMnIJyjWeDzIiFN,12.92184234,77.69292737
JJppBmEBESHHEKM,12.97348296,77.60259963
iLozbVApJSXmlET,12.88619366,77.73511735
qRkXfDsDXmkPhiV,13.06470297,77.49609752
djfMAJHQMwctzlr,12.86597709,77.71936637
aTVCnxWtroJHYze,12.90899347,77.56406846
KUDVyRreQFprfGM,13.05255686,77.49718136
oghZJueuCoOVFFb,12.88511467,77.5295542
qwyZbldyIiMwAtX,13.09523598,77.7012832
mdwjLVCzawRJRbF,12.98897033,77.66838579
ubwcOdJpSzYjTsq,12.95573753,77.61363584
tjMQLReAgmwYMHS,13.0622491,77.51225827
WVmetzSiurfiAUL,12.91256116,77.4526941
ozDTqvwhYQBROfD,13.05794787,77.49674734
kevkYpwoeByGkFr,12.94299412,77.54395973
dMUDcoSkcZbFKdV,12.87697772,77.65820071
kAbqVgEBpxFnneeo,12.96097507,77.57004912
kAbqVgEBpxFnnee,12.96141321,77.57019867
lTtlymCLWsWZWsVq,12.87696321,77.73722145
lTtlymCLWsWZWsV,12.87673497,77.73676928
iBRAngLgCvBRSdG,13.02433908,77.56113474
OQwFZvRDfaPmST,13.02359602,77.61059259
OQwFZvRDfaXPmST,13.0229522,77.61072906
phXvLqAWrLDZhtd,12.88268889,77.66603176
UHFkwweTReUSDKq,12.98506841,77.64400192
NibgfyKYxNWbeKLg,12.91328486,77.64198737
NibgfyKYxNWbeKL,12.91389187,77.64292344
qJppelDtodtuwlS,13.06542173,77.6967317
oUvkVqDnWziwqkHa,12.86031539,77.71437757
oUvkVqDnWziwqkH,12.85951774,77.71387691
gJCMWixYCxiCsRi,12.89060617,77.45334686
AFqPgmEocwIFzLt,13.02030556,77.54426001
ToRGkjGtfriNKrG,13.07633664,77.50825743
uSpRTMsPPxpYrXYN,12.89346796,77.46530154
uSpRTMsPPxpYrXY,12.8930565,77.46607831
FWnMoObNBQumEbF,12.99260036,77.62052875
LXeVIjVTvcHGAuR,13.04168761,77.64935555
VbKDuThUkVhCEke,13.07860616,77.7223663
jpwlGIswRSROHnHt,13.04131613,77.55980603
jpwlGIswRSROHnH,13.04137554,77.55885516
iULvrIPjlCxIbaS,12.88775625,77.5365935
dqBETBbjtnmCjfyH,12.98860048,77.5720966
dqBETBbjtnmCjfy,12.9887294,77.57301755
nLZxHFpewcAGrx,12.863799,77.64452529
nLZxHFpbewcAGrx,12.86385784,77.64525981
uvzKVBQcyXHtZVW,13.07281791,77.6962507
QzpbfuMOwCwbYwA,12.92404671,77.53196518
SHOpYBxDzUqDXVC,12.99388132,77.49047282
ppNmjapNRDwzKSG,12.85577323,77.46353823
VDpxVLdUJWsrQRd,13.0165377,77.66186594
NIhGiaebgXkNTXz,12.90344896,77.61073602
vbzvUUZmcsYlSNW,12.99692542,77.60442642
tKPqearmjjeXJKF,12.86043553,77.68204501
tQJDehlAWgvqTVj,12.94638308,77.73090427
YlJipaMJEgYDLGL,12.85566093,77.70590251
sybMQAzuUVMldcW,12.92319608,77.73550459
kNhxxUpqqPJLmeh,12.90008894,77.52488981
DoogkGPglaOVapTC,13.04136705,77.68444569
DoogkGPglaOVapT,13.04128267,77.68541159
AfxToToeaPWvZWPw,13.04710662,77.60154707
AfxToToeaPWvZWP,13.04793998,77.60200775
oktOgZVpMgzkIoQ,13.04352344,77.60829813
dYtwXpiLZZGKyXp,12.91862829,77.60075689
NnvpamKFZgFAymr,12.95603152,77.74012493
epgERAsQdMmYvlWO,13.07155663,77.47753799
epgERAsQdMmYvlW,13.07123212,77.47760893
OIuTonvpKemVxgj,13.0058949,77.44596757
cJsgpIDaapwLLzL,12.98537262,77.50694462
QGKQMGFUVAUvHwbi,12.95693668,77.70543799
QGKQMGFUVAUvHwb,12.95770286,77.70571514
xbqFuavSOQEbmvv,12.8739781,77.5724454
jXlmRpRPbcSCigw,12.88871668,77.68973237
zPSWlKdbuVOtkqR,13.01197464,77.66341523
ZxqUVgjukCQVYmT,12.93490366,77.72460942
cNiURThlENYskRGc,12.98476039,77.69799223
cNiURThlENYskRG,12.98379327,77.69712206
DBhEnsjgbbSoIUZY,13.07286689,77.46666114
DBhEnsjgbbSoIUZ,13.07276436,77.46578817
tNKXZupORAhTcLB,13.08963594,77.73822511
XfKIVKiFANgrzFL,12.92785866,77.52022848
eDSyWpjMyyocOyY,12.92334853,77.67778596
mMwvSDnetrjTSDh,12.95678006,77.47937814
kKcvnpZxEITgtWn,13.06920524,77.74304771
jsCAcWwwZaVQJWj,12.996604,77.67329173
IpIbcehVaYtLLQH,13.03674631,77.49266374
UwyonqUKbSPzXSa,12.9179939,77.60333463
pXiQXYXRSplaDGz,12.90456523,77.52698705
BKDioYovhahsMLe,13.08510126,77.4527782
AxKufLnhldOPnv,12.86534346,77.52254096
AxKufWLnhldOPnv,12.86453359,77.52222344
NdDtvDjHpfaPiyH,12.88531773,77.67983335
zqRqksOVHZNxmRj,12.87630747,77.54438748
pttxSxLaIpzZxHx,13.0746746,77.57028659
KdTDLHVuPULRgFl,12.94081081,77.70197592
WWNOGyYeqfvkmmx,12.86092816,77.69970491
TOKCbBDbOFiAkeE,13.04858405,77.46829898
JIisjtNghRsdZr,13.03734047,77.55605579
JKIisjtNghRsdZr,13.03800229,77.55518971
KMXYsjDVZBtjByM,12.96493712,77.64424296
wybMltMlRsyUSZUm,12.99332458,77.47070937
wybMltMlRsyUSZU,12.99264553,77.47036483
eZhnAOaNvkrmaZd,12.97645102,77.69596626
HhAfeqRCcyXQQMC,13.00331059,77.71872418
IUIUrQnxTdPuvgN,12.87738032,77.62435024
NvfVdgksiTNCgpF,12.8975894,77.72644444
LrmrIIpDnzxnKEfZ,13.02000691,77.63064691
LrmrIIpDnzxnKEf,13.01995854,77.63117947
JPDlSIxcnMvREbx,12.99378448,77.54732492
LGohaCXZoyALWDM,12.85982887,77.64417158
hsGOVBKAoXyAoNB,12.85445025,77.44794147
NjBuSQsdLLpocYw,12.91486517,77.62069408
XWyBWdhElXWkSsU,12.97371043,77.614359
KLbWzaMSxQizCvS,12.86608053,77.6778207
jQWgMYpmzAHYzHe,12.94565178,77.4822252
KxRKKqiAJLYhYMB,12.96009339,77.69009934
xKYRkBITsRosvMx,12.95759521,77.65464294
NRfshQaysaMRWIA,12.86474615,77.47818832
joTFJKovMIUVQtvT,13.02408021,77.61917823
joTFJKovMIUVQtv,13.02313643,77.61888564
kpqhwoqJYWmaitW,13.08573377,77.4901042
UWPAOdWOoDDQLsI,12.94164894,77.54177971
IfCkjzOQKtbPJee,12.8621816,77.46421703
KdTUHUUKLYARyfX,12.99237072,77.69933522
fEvlCaVXFFuAHzk,13.0878618,77.5532462
lLKnbTkIlrLJifE,12.88152578,77.46534213
GVuGPdbPLNDBxgc,13.08262035,77.67532088
UAuIbMnrqHgViZv,12.94206573,77.73847981
ukAcnnNJEQJefQP,13.060271,77.65621047
ArnQxoKYkDZyFatX,13.05004888,77.61627523
ArnQxoKYkDZyFat,13.05093302,77.6154149
ooeqqlxEaLOhdIr,12.95584811,77.57710088
OAAObErlxdVkOet,12.91261779,77.6401051
hefDlnEonRQwJmB,13.08886052,77.62559194
CnRfsPRFUuNJhw,12.92632596,77.61283747
CnRfsPRFUuNJhAw,12.92583049,77.61288428
ryFAGHHkenZGxjN,13.05390596,77.68370116
dtMmdVfCfDeIbiL,12.86923006,77.63807034
jpHAiXjdJjPimTc,12.96852484,77.58890616
AtAdbtgwGLoFlic,12.87193945,77.59814322
NRWiVJWuPOCeZVU,12.98014523,77.59174941
BQpBtdNGIRjYTRUm,12.85611945,77.69788929
BQpBtdNGIRjYTRU,12.85636785,77.69812096
sSoPpXKpdFYXxHF,13.07467261,77.45991592
glFalYEzWEsaqSX,13.02371107,77.54687108
JdJPAWxkuCCAKrx,13.09522672,77.73503176
qNgKGyXMCehfNnW,12.95301425,77.54120878
dzuXQcYlKqAjgZJ,12.92054263,77.58031383
tnEYDnFDJouBjHY,13.09107988,77.6508267
lWndPrbYBwtVjA,12.94878951,77.65649655
lWndPrbYBwtVjAU,12.94874789,77.65738604
EkkrUCSmBLTSTz,12.97266174,77.66617968
EkkrUCSmBLTSTzC,12.97227366,77.66638536
fsQDbbsUZCWicXN,13.05937872,77.59086556
hwqgDBUcZbgmHxzw,12.98380445,77.62490629
hwqgDBUcZbgmHxz,12.98325809,77.62456361
KFAzSYSuqRxBxBz,12.93862602,77.50084224
TadhTexQbIhorfb,12.87364188,77.63736943
pXRWmAVyotyqYtH,13.07641665,77.54604294
UlwrkwvpctzsLBG,13.02933632,77.51380417
RciNFriZVRkMnhL,12.95972504,77.65200543
tSPaHnvEbJJEjru,12.86478118,77.51605084
wdsAMecxiDrAamd,13.02627291,77.69457204
UDwbAQBMeUPfXca,13.01178861,77.4953313
FFPXMGtUqxDXodv,12.94304809,77.61179468
OhHSbmTBeTbmTKz,13.00414299,77.57626911
kcLzdPeCnkqlhlv,12.88916237,77.4668416
kJwjWmAbRrpSeFW,13.04901532,77.70099858
BQyMXKoPTHzzoZm,12.86225319,77.69304178
ExGKmWBmEbrgrzX,12.86222373,77.48145978
acketlKpXhcGiMcw,13.02290091,77.72603845
acketlKpXhcGiMc,13.02381356,77.72701595
yOmcagHtiMsceOH,12.92132981,77.65404871
zsXGztDGTiYIiKk,13.00283795,77.67110016
biSfdxNiyizULhFr,13.01405843,77.68870919
biSfdxNiyizULhF,13.01466811,77.68940312
KqNJrejuJqrVjwan,12.88150247,77.65193118
KqNJrejuJqrVjwa,12.88202623,77.65240043
GDVQKUQtzFJBWkY,13.00233717,77.7155415
JwWgwFfCibUbkmx,12.92125324,77.65875185
vKPmBXuxEARXlZg,13.083755,77.73490609
hGTRCNOMzcyxMag,12.94248034,77.68637184
KmyDmxIapLOKhiW,12.85930043,77.62225386
oPsIbIGTAWgckJf,12.87593251,77.68085992
WWPDDTjjKNMDtap,12.94176028,77.54600124
hiYBsWslVlovoPY,13.03515014,77.71643426
lYSgWGNZnYmBGDF,12.98403493,77.63529444
kqWIMeaoZrwqGW,12.88045008,77.71691689
kqWIdMeaoZrwqGW,12.8802571,77.7161951
IWHcGBYNHUYKZOJ,12.96779584,77.46720127
zhaWaYdsRLmTooJ,12.98895949,77.52393824
hDZCNhmjBxZkXDv,13.0478097,77.66422931
HFdKKRkHUmdOVqw,13.00340552,77.62266594
rGkCicxdHNhBRWc,13.07146532,77.44629197
ccfGqYGPOcwLBwZ,12.91142727,77.56110917
IXkWqTDSNvXiafO,13.09470116,77.64107443
HLuSmtUuvqhoyMY,13.06212559,77.50885443
OdlpurLXUGhiCaS,12.93361026,77.61415034
kLjDePipuNdQYRY,12.86647894,77.58657476
nvdUvfplxjiPYGLK,12.93627132,77.55350705
nvdUvfplxjiPYGL,12.93594207,77.5527763
wyahFihpVcSJdck,12.99927475,77.55183663
jsvMAeBSSLnbfSv,12.88161617,77.45850959
docNiWIhtusveKq,13.09073737,77.65700944
OqJijwWCfiglkf,12.99564794,77.72774753
OqJijwWCfigslkf,12.99654552,77.72680079
hTEBAWYvcKuAvNuA,13.04051054,77.44930125
hTEBAWYvcKuAvNu,13.04069183,77.4495803
XNerJTBBvYyqRNc,12.90248701,77.45840396
PfbzjRwwQMklEiD,12.89796523,77.73997539
CYuBtPCgDJFWZz,12.87199334,77.50966818
CYuBtPCgDJFWZLz,12.87297278,77.50920974
LOgdSCRsXuMQLJ,12.96783657,77.52564738
LOgNdSCRsXuMQLJ,12.96842349,77.52635916
NKPftpjZlAggUCv,12.93173649,77.48186013
bgRZHJqNIwPCuMI,13.06765511,77.63704131
ZAJnKCFBinARdsn,13.00164405,77.62958002
ZWJQYMoZEoklxce,12.86307497,77.71872802
JSYIWDDWPYOeWqO,12.87793385,77.48893868
VKbZbsWmEVpAxYQ,12.85569442,77.66597271
wRehcKJMtKwLNkl,12.97872706,77.56493963
KjfmIWbZbjJvRHL,12.90558158,77.70819279
ElUlHRrHhaEfcxX,13.00939415,77.62518681
biQyPcWBIzkwZDl,12.87518709,77.64271437
tbmgCjpsBBaQtEq,12.98729108,77.68729161
GJwyCyMNEySoQlS,12.89787431,77.71540553
UmJKGtRBtZMvAiH,12.94608527,77.56985894
iFmSXJZYvhzcuQL,13.09671521,77.73976603
HHfmFmqtRRrFqud,13.05058677,77.60248187
UdmPbaSQHXYUjXZ,12.90561273,77.53067755
RZXzrxjpGnUnpzq,12.87933751,77.66047714
owcPWlILgqCOtpM,12.88520196,77.58790443
jOJWONdYjTcSjyj,12.92828074,77.4980236
cKuUcmOiFdoBYHZ,12.86023824,77.53468606
SvtadFcxZZhZmXf,13.06081483,77.52375147
oLLotcExJdQqFbd,13.06051125,77.69009643
ikONQSMkWmihgjP,12.88413118,77.44672143
FkgmdXfQWFLiMCw,12.990572,77.5568528
KmmBqkaneOFwVfW,12.88258121,77.51129916
qyYbtMGMOuVbnxA,12.92187038,77.58995305
btzGHZDqWolXMWe,13.08853262,77.55927266
vfSyjUIajJLcGeu,12.97721175,77.47490206
GfSfNIaFCpgpBes,12.88060337,77.66553239
PJzoRUmbXOEGjGH,13.07758505,77.62937571
DixjOhqtvAdiSWg,12.90307645,77.73529386
ZbRlYFHJZlemlcg,12.86041072,77.7012641
bVWuJHPDKrkGyqG,13.00562174,77.47403696
WEeegLYYvdQftC,12.97894562,77.67529068
WEeeTgLYYvdQftC,12.97951229,77.67509942
ytuqkpYPdwphopm,13.02369942,77.52356917
YfxWxCKlmeOQrN,12.99573772,77.46042725
YfxWxCKllmeOQrN,12.99657891,77.46102703
MrjYiKFDVosaAjL,13.08656082,77.7012288
qdUtWNBvbtuZnil,12.94787281,77.47705011
DBDGxHfguqOEbop,12.98864582,77.53089514
CLUfDxWsNRlwZHg,13.04345919,77.60418237
OCLSBShQbPRvpgU,13.03285703,77.49677652
YfiGoOwmnQLyjRi,12.90693182,77.54691737
YApDJtqauwNgAHN,12.93203102,77.73580676
oEJllKszAxQaEaY,13.02054676,77.5931313
QkMhLEJVsvkOWIp,12.94894245,77.50384472
VLHkwWryfdbdhHN,13.04137236,77.50291044
woLNuGHIyFutqqT,13.03083027,77.68109205
ttjpAppqdIOtlgFD,13.0077761,77.53102153
ttjpAppqdIOtlgF,13.00868142,77.53104197
mZYydyyDPPpPzuvQ,13.08197032,77.64048601
mZYydyyDPPpPzuv,13.08261148,77.64135174
iUcpSxGJjDRaZCq,13.0696309,77.70391191
KdxeZrLpKWPOHiO,13.04868728,77.46036519
DiAlBOqofqXTfiT,13.0613306,77.65465874
qYiNGLQDcCBbBNr,12.85350481,77.54323262
bzzaIJThXyJXbor,12.85624255,77.54152273
nrfjoBfdogrQQxd,12.93277823,77.57048618
QkwzQyaQqYbgzoP,12.93000103,77.51117383
cgWUWBJqaVrOolO,13.08576646,77.65233989
eZVvqYradDFHGWy,13.06230781,77.49254698
InXyxxYvuOtrwxBz,12.95902623,77.45580673
InXyxxYvuOtrwxB,12.95939381,77.45516488
jJVysWnvThEfVN,13.08383292,77.72253068
jEJVysWnvThEfVN,13.08456671,77.72250142
QcmbKHLRVzKopHoz,13.09475997,77.54369529
QcmbKHLRVzKopHo,13.09444933,77.54468402
uOfuqQKCfUvxLHzl,13.02864674,77.54081547
uOfuqQKCfUvxLHz,13.0281528,77.54018141
ZqvgwmPEoXzgQv,12.88636709,77.57976963
ZlqvgwmPEoXzgQv,12.88717757,77.58021503
yLlHSCHUezLTStAe,13.00426458,77.56316646
yLlHSCHUezLTStA,13.00485957,77.5638384
CrCgXFmgUzERwQn,13.07128627,77.54734298
zpVccYFOysOPBb,12.95258127,77.59260231
zpVccYFOcysOPBb,12.95173792,77.59243374
bbyIrLxZerivvyH,12.90954011,77.73538139
OhvhIuhUeIhJVxE,12.8666725,77.65034939
OlBYPNYBsPdUWIL,13.03715709,77.61938457
jAuCBcIOebjPtL,13.06804311,77.58078352
jAuCBcIOJebjPtL,13.06851383,77.58094941
SPGFVLoTKeaphGl,13.07265733,77.60297409
LQfhhHnoOZxXJZE,13.08995726,77.69899533
NjvldpTqMFjNvMv,13.0196115,77.61659045
UHvHflhMWGpvEzuo,12.92682368,77.58184944
UHvHflhMWGpvEzu,12.92597395,77.58158328
jPKsYKmnRlcIteL,12.96581469,77.52693339
BoJCqoJklxplftqF,13.04119265,77.47023635
BoJCqoJklxplftq,13.04176717,77.47074862
YWceWqRLvizUsFW,13.00689469,77.57664271
abPUkveuBTZyvNQ,13.02766485,77.68831149
eXmTPoTnqAZhYnV,12.98082922,77.67176533
xSqLSOLKrljikUy,13.09303929,77.50405508
tlRKGSfyXpdnszG,12.98710594,77.66757001
riKAKZfpzWWgqEC,12.88814807,77.49578211
UaNAjlVwovchJv,12.85776744,77.55587184
UaNAjlVmwovchJv,12.85746869,77.55611115
SYgrIhsaCxBHBh,12.92522869,77.53493873
SYgOrIhsaCxBHBh,12.92609061,77.53502269
RXWHxGrDCilrNTm,12.87818457,77.67181096
LUCJDdIUoXjSdke,12.99129092,77.46277797
GGyIQNLuyQuVsao,12.97687331,77.67744447
kjLLmhjgfgWBGfn,13.07842485,77.60425564
wWunSrwPQqAqciY,13.00494991,77.59111131
ZfPuYUtJPaAyrzw,12.85337183,77.62566124
lFiZgUTsYsmCcve,12.90639178,77.7326948
YAsqEAHoRqfIXEu,12.89125738,77.6353235
EYSEhwhuWVPoNFe,13.09226828,77.62601495
zdSedwsmTjFbTRq,12.90146008,77.73915179
XbOtjZlbsSqrrYRV,13.09255219,77.52968715
XbOtjZlbsSqrrYR,13.09202641,77.53052607
cwPnQlblARQNxgc,12.91936833,77.47650191
TAevJytephHIrIRM,13.01830247,77.65401142
TAevJytephHIrIR,13.01854974,77.6547496
uRUXGHDRExEeeHb,12.87976453,77.73931861
XajaetzVTUaSpHm,13.04437737,77.5780789
BNeHOoSzriPyNbA,13.05177169,77.45234936
lCARbRkAOZNJrMgI,13.02761337,77.68489833
lCARbRkAOZNJrMg,13.02758072,77.68448847
jVMitFHFeBXylUO,12.99274298,77.48944555
wTUEkXzUrWajsum,12.99037029,77.71140507
KgFlmuNurvKcSpE,12.92940587,77.69857804
xeWCIHHPNhwOMKl,12.97671309,77.50463218
ooobimnhkeFFtyD,12.89689129,77.67903661
YoKsktuOqMWVqm,12.93183096,77.60181359
YoKsBktuOqMWVqm,12.93246728,77.60277644
cTnDlXxtaQulmEF,12.88943207,77.52881898
FTBTVigRRBRuiOx,12.877061,77.53145068
DiNlziXGNFumRLf,12.93938223,77.61568709
PXyatwKsirkhLvW,12.98455144,77.65723646
xYplogMXRUarbHY,12.95291945,77.47028195
TXMPICPuOtKzpvz,13.0339225,77.68897684
dgqwhXuKotQYyIw,12.93644483,77.52063706
RdrWinoSIaJqtVt,12.93147193,77.55582922
LGJhslNCbtqaTbd,12.95529193,77.48937718
YXdWcQptEPkDLGp,13.06189198,77.73560525
biVjwvpxcitlbyA,12.85656182,77.60839428
cdWCGGBLCRmsXsiJ,13.01782513,77.46142488
cdWCGGBLCRmsXsi,13.01863267,77.46191952
aLkNGsfsCEGxqM,12.89941111,77.4838565
XaLkNGsfsCEGxqM,12.89874601,77.4839006
qYgMcfTPkSWhblr,13.09051472,77.60186213
RINznJedJopAEuO,12.9547676,77.63418282
IXDcuKmOfWjqfTF,13.05643614,77.71430747
JRqHDdwTdpSwjDsg,13.0628367,77.63304183
JRqHDdwTdpSwjDs,13.06302687,77.63275477
NpVbgsRlsPylVWd,12.92363537,77.70410993
waByRsUvHYbdGYs,12.87551531,77.72187387
UElutIQuKJDSaqW,13.07237703,77.57182399
PXJKpsMNmFqQFJh,13.02622402,77.50874096
gzvxBpINFCOewtSW,12.88658692,77.51896594
gzvxBpINFCOewtS,12.88730973,77.51796828
TlErXeVVUQYjTYk,13.00324758,77.64577376
xVddhbRRWBeIjtf,13.0341526,77.46203221
EyZQtxLzvXHireJ,12.91991068,77.53803797
cswlTnDcEWpQpxou,12.9466628,77.52429071
cswlTnDcEWpQpxo,12.94568078,77.52498338
lmGZlXHKNgHlXp,12.89765088,77.5589432
ElmGZlXHKNgHlXp,12.89801082,77.55808453
iklkffXSjCUHxIQ,13.03304186,77.62416076
kqGadMdIdxKBIOI,12.88203398,77.67885593
qBuXyESZtjaDGgdK,13.06161858,77.49529282
qBuXyESZtjaDGgd,13.06076227,77.49607772
sYKZWdrZxoANaz,13.05707461,77.48350317
sYKZWdrZxoANlaz,13.05769714,77.48279869
TuroaYbYlNIIswb,13.05087217,77.55466222
yCpuvRYgvLzzyWX,13.06221426,77.5095299
DrHOJKXjqEHwNuI,12.9998049,77.55179223
YZOvCiKFJOTQAx,12.88845403,77.71967933
YZOvCiKFJzOTQAx,12.88866532,77.72067297
pJmaPlLvlPEvury,13.04909559,77.45128753
xPbNQoupguslWG,12.88601669,77.58172979
xPbNQoupgsuslWG,12.88543206,77.58194123
rYIYHNtYjFVSoMl,12.90474506,77.54158835
oJCeRlktyQyHbXS,13.09110306,77.49543606
jxWFqREAeDtAgXI,12.94020928,77.51481471
kGBtHeuMpmHgpEq,13.05835581,77.68741838
yOuhGskMkKqrSXM,12.91691857,77.71508756
emDdDcFGYYqrVOO,12.92428974,77.45344438
lHNjSOmtfxpNnbT,12.90349209,77.52921367
xMezibpwlNVqngX,12.95959121,77.63745045
gndnSitDSjDFeaW,12.88514945,77.74321955
wiMprKarbLEQLwI,12.90287436,77.49675811
ksyFNqKAPdThAWN,12.86426563,77.73271906
xnbhgsiIJAPeTqa,12.86791769,77.55006627
AxipFwLmDyvRGjR,12.91061818,77.56472699
EPNizAEmwcDPCVM,12.89927637,77.62636814
LoZRugDaZMiyUllk,12.92601332,77.72910756
LoZRugDaZMiyUll,12.92611489,77.72900642
WYsXcYMfbZnbzJj,13.07559537,77.51300379
VzzYSTzgSMjbtGU,12.9522726,77.73806665
JYlFwbtPrweCBKj,13.09217247,77.64530465
oezEyHeDVOrYAFEf,13.01163494,77.67431669
oezEyHeDVOrYAFE,13.01193658,77.67344414
meFZKKwAxeilIPM,12.85824685,77.52395831
UHlPwVoiuYKgYoM,13.087243,77.52487496
WPZRoaYMTsQMVpup,12.98120308,77.54479952
WPZRoaYMTsQMVpu,12.98145711,77.54394672
sfPHqOPCPxGZxlw,12.91069179,77.69617678
xfPXOmmRwWGpDiE,13.01780638,77.5837587
DvErJmjgPevlfD,12.92346141,77.589582
DvErJmjgPeavlfD,12.92331371,77.5890497
nWDUOqdEvnKsWsJB,12.97935839,77.72664801
nWDUOqdEvnKsWsJ,12.97948797,77.72677598
tVcDlOFGDstwYGJ,13.00038452,77.51029904
aAvzrrdaQOqVTup,13.02456447,77.46613449
tniQsLbPfCetrVe,13.09428851,77.69295218
zVEEzCHEcXuHXUt,12.92914066,77.6477874
LTYuLaIQBJjvbBK,13.06227936,77.58900499
VZGEVnXHWxFyvNF,12.96606167,77.5496742
NbLRLaMZeWKpvpm,12.97097488,77.44983593
BPRmOjhYDsaQrVV,12.97064111,77.6917825
mDLNrrhYNkrBkVb,13.02030786,77.48933235
uMXTMKgCKAGzAo,12.93222482,77.68792414
uMXTMKgCKAGzwAo,12.9327304,77.68695216
KNvRCdOeWjIHrYu,12.92339822,77.69136667
FwItzhQnBatRGFO,13.07856119,77.5082413
RyuoYrLbdXCnnKXl,12.93386857,77.58169025
RyuoYrLbdXCnnKX,12.93448657,77.58256404
PYVftAEymeiwqUE,12.97563817,77.68476774
zhePgiNmiHoHYQ,12.93000126,77.49238942
zhePgiNVmiHoHYQ,12.93033944,77.49338719
djsDYaOghYsXcUu,12.89546962,77.51538949
zbxoxZnHvpKNCHH,13.02386143,77.60888244
JzIqAQKJfpeoDmfT,12.96046967,77.5652909
JzIqAQKJfpeoDmf,12.96051297,77.56452284
zQqFVILLlYACpKy,13.03828681,77.52284241
yoTnRfYevhoTAKa,13.0363381,77.6597102
mwsvActWvYkMSwX,13.02885446,77.56633839
ScUGkxZliMNHayh,12.87579816,77.67515722
mqOhlXXkbVkWwLH,12.90974568,77.67659868
PccAkEBKWWHkdhm,12.89181988,77.6529434
EXCPcptWVjQDHDvL,13.00688557,77.51718984
EXCPcptWVjQDHDv,13.00764857,77.51736854
SORAKXFwsmJYLNR,12.95661107,77.70241177
pdxEpcBPbNMMJzK,12.91510071,77.66882873
wevjuaOBJKHsdyp,13.02258042,77.53549344
yzkDhRtIxnwzfkJ,12.85434546,77.50340975
AcXZQdYMIluFDXX,12.94942738,77.55284313
bHyBHrVfbFQxlSi,13.02068056,77.70217113
ADQmmRLOfeMgzlV,12.99525258,77.6861438
hYsPwzsWDbYgAAnd,13.049049,77.45771223
hYsPwzsWDbYgAAn,13.04886879,77.45725919
aybjqCNLZbgrUfH,13.03104455,77.66156121
RJJTwBGiGfvZCtN,12.98380425,77.54985247
rSOgpfYnqZLQBPs,13.04315419,77.66316387
qfLedzHxgHYWsvq,13.02329269,77.6178764
RwJKzpaxklhjesi,13.05537068,77.57116318
wsfgWzAWOsnNIhh,13.02900927,77.47728534
FnGAoLbiMJMdKtY,12.90177978,77.66810575
NCpYrtmwyypFKjH,12.97829814,77.52987753
BhCCfFMNtHCFxsl,12.87495263,77.5961781
iBirySoxFodbfspi,12.90364987,77.52563437
iBirySoxFodbfsp,12.90283271,77.52655161
foBQznTbOvZwGG,12.91685934,77.65687615
foBQznTbOvZwGGB,12.91601352,77.6570771
GiHbrEOEfxfvseV,13.02481802,77.54999333
BzVaRJfRPKuhpCl,12.9554251,77.55852458
XSqodiQhgrHXiSd,12.88836859,77.56171306
BoWRiJHMgVOZyn,12.93553282,77.70905832
BoWRiJHMgVOZynC,12.93480984,77.70823792
VvGLNoGKXNVyoxE,12.94521981,77.59093444
VvcOsMIhONedxaF,12.85934411,77.60146766
pVomjCFCJrrbygn,13.06476168,77.68927759
KtEnHQdOZUmVQaY,12.86205472,77.71751387
drPaLePSxVEiWOV,13.04145236,77.45549194
wvZOXJhDTDlmZhg,13.090759,77.60381873
IbIdTCcpuVagZfu,12.93733952,77.44596792
acxmwITjTdMqWEF,13.08923229,77.61368825
JWNIUUseMnaVWvPJ,13.03409998,77.54836973
JWNIUUseMnaVWvP,13.03331377,77.54835317
vmYKIgypQphLue,12.905965,77.70177179
vmYRKIgypQphLue,12.9061545,77.70208383
kDCdycuIJCkWSCC,12.90940015,77.50590825
lqknFPakAOuhQCb,12.97610631,77.48960526
TeKHvbebDfyLIxu,13.05704688,77.64784391
FKRKVcjuHGMIMFw,12.89855052,77.48462855
JJUuUXPdHyTbpWT,13.03614875,77.6994862
bmmsuKeQPkivVGU,13.06049985,77.72834135
iozNiQtsHZFdfDb,12.92434158,77.52994542
ksFfSXQGTeLcMXu,12.99080923,77.48966222
dQPIIEMGZTUBokX,13.03985282,77.53818608
DcmvTQYnpMuEYVT,12.92406013,77.61851306
TiSTNWrVPXfqceM,13.04712494,77.58910573
hppPdpLwIrORjVu,13.0376953,77.53815457
FGBunUolhnkXbqn,13.09347318,77.69206594
JspFpKZBgApRRQO,12.96411661,77.67489491
LlmLPGYCLgKwgsm,13.03966099,77.50393718
tlsRDyenYjfiYbUK,13.0632845,77.61589982
tlsRDyenYjfiYbU,13.06380147,77.61535911
aohCRUmtFMCcwwl,12.98923743,77.69212911
ZjzsjdpvzAoWHzT,13.01837529,77.49883342
rqZeHwWrZFNeIxZ,12.92615263,77.49275367
gEQBUndMbtEObwJ,13.01245424,77.73358963
LrEaXBaBUHuFKF,13.09019662,77.70630753
LrEaXBaBUHuFDKF,13.09057373,77.7067893
ZoEkMkdmnSADJQm,13.09656454,77.51369709
jqmaArBwDxSAhGS,12.91059107,77.71836704
MOESsfQWFxELZCE,12.92150934,77.4558574
YQzsmFdVkFjZbU,12.92482327,77.61713622
YQzsmFdVkkFjZbU,12.92461256,77.61694441
UbgDvKUHzRxiyTq,13.09270604,77.62910887
TCXjnNpgoqlowkP,12.97942119,77.70769519
IQVseKMSAjddGhO,12.90465379,77.48833321
inCrzStkJhIHruZW,12.89127621,77.52945917
inCrzStkJhIHruZ,12.8912833,77.52901057
bYMFRKTOMazfyk,13.07225632,77.6610249
bYgMFRKTOMazfyk,13.07224011,77.66170722
yFtzJtTqErkjHmY,12.86459938,77.72133861
vDiOfcgKDYtdmZt,13.08916348,77.53441522
LVhpKYAnGTgckEA,13.0213614,77.50920475
FhjIijjHepfralL,12.98559773,77.60037391
gaBwUDjefoAIhZk,13.02081783,77.47204045
IOkVCJeKWkuYZDw,13.07689618,77.74275804
FZUkqAuiDMUieX,13.0862373,77.50312466
FZUkqAuiDMUiIeX,13.08566519,77.5031999
EqQqAVnPPgfKUnL,12.98960084,77.55716696
YyDnmnQNgNLHbk,13.0771147,77.55392083
YyDnmnQNgNNLHbk,13.07635591,77.55329507
kOxEJAonBXBSqpe,12.89849493,77.73615788
MPkAbjnOmaLVtSAs,12.91570876,77.69602334
MPkAbjnOmaLVtSA,12.91553898,77.69536774
GuEtbKLpZbILYJh,13.0062408,77.45555873
UeWCxnGiQPTgtp,12.91277866,77.72677002
gUeWCxnGiQPTgtp,12.91184645,77.72631327
iToPPNBfTeqcHW,13.02153875,77.53953788
izToPPNBfTeqcHW,13.02111949,77.53864401
YeFzfIhiXuUFhk,13.01753333,77.65319779
YeFzfIhiXAuUFhk,13.01791814,77.65418008
EpEIpoAGWbmUQKT,12.91176972,77.52921861
bobAlHgiBzdHqpLi,13.08074632,77.61170651
bobAlHgiBzdHqpL,13.08098942,77.61090852
SFuHyAkxZIARBKd,12.92130289,77.65770835
puskAoncoYEpcQl,12.91859301,77.53852115
jFQyLSNyfUKfGL,12.93475027,77.57220591
jFQyLSNyfUKfaGL,12.93548868,77.57286926
PnDwuQhlFHyPjrQ,12.86082967,77.63135856
tddCxefHKvQiObq,13.08845961,77.66535493
eyhOnNyDqTGichH,12.86833849,77.61052236
HiGoGvomqAAxJi,13.07478085,77.59240636
HiGoGovomqAAxJi,13.07419337,77.59234102
qcJdJrIMDjIWdrl,13.06803772,77.53731285
ZYVBgessPydqwf,13.00853376,77.66361902
YZYVBgessPydqwf,13.00846013,77.66413823
zPxfQIfkdcnBbos,12.90509538,77.50344503
tgVydlPSQLtbGyn,13.09618616,77.69617859
wjRTsidHgNntNDP,13.03155757,77.45131143
CRsYrPVltoTQPjz,13.09146529,77.56156161
aFaLAECCOMEuLFE,13.0928363,77.50275778
lOwisEajYwUYzLk,12.94594535,77.63034906
RkqnqYVIjCeLzGG,12.86380359,77.46912551
nXuNerkaFVsUXeC,13.09026808,77.59010985
UCJxlviWMpSixwU,12.98114037,77.45793498
OkVfIncLSLDbbKs,12.91011092,77.72526408
jnebQffRVzSxSCm,12.90140135,77.72905877
uKKGdMpjgQUitw,12.94188484,77.71969678
uKKGdDMpjgQUitw,12.94179518,77.71978734
KLdRHJbVmkUzCy,13.07243699,77.48884706
KLdRHJbBVmkUzCy,13.07239399,77.48853988
kRchTuhYICvqzTc,13.08001255,77.54215811
HEUYZNhvgbdSvbSM,12.87237239,77.54432337
HEUYZNhvgbdSvbS,12.87232042,77.54445018
ujvuwIqLOTWpybS,12.95937649,77.57319558
plSViyKUdJXpuMT,12.91773468,77.66698095
phrVvUzQbBpsZrWm,12.99351196,77.50033363
phrVvUzQbBpsZrW,12.99252484,77.50104984
RGXTBEBpdztkwwl,13.07097724,77.54727533
GrSrWWUAFOFUrhO,12.88598759,77.59143186
uTZUxDjCemcHaEI,12.87444037,77.53313297
oiWstFxbmBVpQcmN,13.02830805,77.54252608
oiWstFxbmBVpQcm,13.02815139,77.54216166
wBZGMBlnbGIExvW,12.98384012,77.66102625
EZVfoaSfPpOWXJw,12.88623708,77.59241136
OJRXKAMNLpjIVSw,13.08872569,77.48497143
vQOoYBDedVUGKqN,13.08611967,77.65609356
JFFTvAMdtvmfosJ,12.91257435,77.53621887
KjbBIKwAEBwxSrm,13.02398425,77.68780851
lwjzUNAOnfmwTqC,12.90014498,77.46804682
PTFNqujYyLQvYvR,13.04821914,77.69297059
gXzVkoqhkpuiDN,12.95441145,77.64633925
FgXzVkoqhkpuiDN,12.95517773,77.64645652
aEbDtqzRJhUBuLQ,13.04513123,77.63527604
dlGYsCncTOIbUCWf,12.96277245,77.73568404
dlGYsCncTOIbUCW,12.96340649,77.73601477
vGhVLhFURUOJQAx,13.06442563,77.71617091
FXCiHOddxYJMcIS,13.05405756,77.70366217
RTmvDlvrxCMlqAO,12.9742011,77.58660602
UfMSLoJylZlAmiq,13.00237399,77.48853291
uHzrwGqQqYCBcZT,12.92597959,77.56832368
mELnBthNCaLGUe,12.97265075,77.5325198
mELynBthNCaLGUe,12.97267582,77.53155635
DDakknsDFgVcLrj,12.88675329,77.64313217
pwffBtDWJELaABj,12.95009127,77.66792315
xqQEEMDJbRDJOZX,13.0360737,77.51183362
oxBbryQhnsCpCwa,13.01088811,77.70804816
gKLYjtAegzHapmG,12.90060278,77.68939369
qsqWuFUAZvPfyrd,12.99629131,77.48187173
xjPawNtrFErNkqp,13.01470342,77.59817886
dZqaaNlIZHViPYx,12.97857986,77.73806573
FXdpAwsykdDWQwK,12.90205885,77.57777711
CzuYIOOmTVWRulX,12.883901,77.56378184
OcKtYUIhEZfdJIuL,13.09152609,77.53338774
OcKtYUIhEZfdJIu,13.09096153,77.53413691
EfvoTvengDneMC,12.99446476,77.64659809
EfvoTvengDneMlC,12.99501437,77.64667407
plcnUcLSSpvJtLI,12.96018266,77.60095401
HlbSuVNjJuTzHmv,12.95607769,77.64276158
KBMIOFwoyKVixdd,13.00033748,77.56367098
rfDhyqTWnfAsKrk,13.02024819,77.6398505
uQdsMXvNMbjGLmN,13.0341987,77.47497865
kNHEfIhqcdUDXKN,12.93220519,77.62165546
tUQnamzbcnuMZkh,12.99642247,77.65846127
riBmWWfWxrqauzr,12.96651082,77.53979955
xOfoUDWJQRKFFppb,12.96108758,77.69436277
xOfoUDWJQRKFFpp,12.96101365,77.69532234
FOjEfvDZsKhmkTlR,13.07994167,77.51776558
FOjEfvDZsKhmkTl,13.07976623,77.51808906
vAKwvmsDFCspSLa,13.06557852,77.60885919
vORuDbKCUjhkARn,13.03125149,77.50590326
WRRehwuZCfQjtRk,13.07825628,77.52324165
TITddrRKOBWSQRB,13.02809038,77.52762585
wnFLrtiOtOZCtlN,12.8879176,77.44603776
ngjrVwvuvbmBcbW,12.93198944,77.69918245
okYcgPsHaFPjRkk,12.86527296,77.44514798
qhSPrVBqaODbQlr,12.94044161,77.44999918
WIHCtVyEBeiqHkx,12.9059974,77.59649731
CnuzDuVTsYnptVI,13.08034538,77.70214307
XeOwaYHQUWreQWI,13.04302681,77.71846202
LBRbIJmEooNXvWT,13.07600476,77.51931501
ezhgrvRgWodMhUI,12.89625292,77.46367603
qpPJSlQwpNQJOkz,13.0275391,77.51483784
OAHHiWqzjwouwSJ,12.94857639,77.57061895
yqfleuOeUwlZmaB,12.94080884,77.51449733
RLiNSrtMhmhogbNp,13.0632854,77.44897585
RLiNSrtMhmhogbN,13.06389334,77.44945011
KorFCOfAjgYvbA,13.04404266,77.63321824
KorFCOfAjgYjvbA,13.04327144,77.6327587
mbxkgnqPkfuDuSm,13.04240692,77.48117718
rWocaOpzdWlvnFs,13.03697694,77.72865256
RYagMaImRyhgBp,13.06667457,77.66587775
RYagMaImRyhgmBp,13.06597975,77.66514122
RcVkgBXVxUtItqv,12.87618374,77.70350901
kBDrulSAWpFBqzH,12.9673043,77.45066042
PJcKuCDlYTIsOBs,13.04164892,77.63085537
DivTzOebcLxMnzbw,12.89692844,77.5112053
DivTzOebcLxMnzb,12.89685227,77.5114334
qhCgUkLMhCKyrh,12.90194468,77.52863615
qhCbgUkLMhCKyrh,12.90290126,77.52888526
QqnkgidPmittaQD,12.95136338,77.58114253
hZdQBclZjSdpHyn,13.09340215,77.53332639
flqygxfxYkCExX,13.09521594,77.47579559
flqygxfxYkCExvX,13.09493931,77.47566735
BjzPttDSxgMUrcL,12.90185279,77.69839304
zrbNeFjMswOcQsa,12.99676001,77.47025731
fnUQgWXAvVgMkxU,12.8759207,77.47174524
zViYrbNGyaWnkIT,12.90686886,77.49318172
qLZZyWngimpGAFG,12.85409839,77.7250671
QiWUEqkDqKcpvJ,13.06074866,77.5858971
QiWUEqbkDqKcpvJ,13.06107896,77.58610804
YLOiNMkDiixRdtb,12.99083462,77.48489664
MwRkeyZJPyIEKrJ,13.01988239,77.60973276
urpEUjFxPCabEs,12.99905663,77.51263065
urpEUjFxPCabEvs,12.99986007,77.51319174
AUmixhyBNmWDzXD,13.06797739,77.46907759
VxIQEBOpZZYeSES,12.85317158,77.66377241
FcUGuCEXiQsWuZb,13.01295294,77.5416765
iliTOhiWWjJUHvp,12.94702348,77.54185317
HrKaRudfipajChh,13.01984814,77.68711791
ccnMrBIfsjbcGFW,12.88361721,77.48257473
FHUJCnUZuEBOIJx,13.08866086,77.7159822
YdtNmuaZMgzOYGT,13.02459373,77.54776802
rTJTjJLdjlUrgYJ,12.87746784,77.62420732
DpzWspgkbRIWxCAW,13.09336503,77.55435615
DpzWspgkbRIWxCA,13.09320366,77.55360658
eWsDSSenXjpWbvD,12.86085256,77.62575055
DhYAYaiNRddBtI,12.97533189,77.57998187
DhYAYaitNRddBtI,12.9746685,77.5800152
QuVHgggjtFmCynd,13.06231907,77.61816234
RwVejMVSHcfBeiQ,12.95088724,77.53507482
nBaUTZAYmEKmVJC,12.92748786,77.4760403
gDQnrQsYbQLyQru,13.0780495,77.52546245
TMhXOzBEIMGiSXF,13.06352174,77.48416456
FCIJEmEjzCpfkaSu,13.06195571,77.67737801
FCIJEmEjzCpfkaS,13.06242186,77.67655649
pydtJnzWatSTCjp,13.07994795,77.49259331
NpOwAlWpOANcbyb,12.96725619,77.69779856
fCLVGTwQWqOtAxx,12.86787322,77.4699046
FqyPFvTMAoGaQf,12.95706773,77.47089896
FqyPFvTMAoGaQfe,12.95754824,77.47057649
ZeLpfpRUmfNRPoi,12.96924037,77.73420791
yNnoiTmnTPkApZs,13.05423706,77.54077802
AQnUKtCHkbkhmfz,13.0941596,77.73453382
DSZfkCyxfOGBLvW,12.9435666,77.66058349
toCoOFODdmbHgfc,12.86246607,77.55013449
GkvhVVQOhHAWOYI,12.94694843,77.44984415
JAgUUKvOeFAIwkL,13.06195664,77.59889626
vMAkTaNyHJYNGH,12.87074603,77.72213418
vMAkTaNyHJYNGHC,12.86996484,77.7230913
zQDEiRPPYHPLkCF,12.93068707,77.50889523
HxJLFSQVRESahX,13.03590358,77.71012975
HxJLFSQVRESgahX,13.03540979,77.71105496
QRdSjPEcodYZOSA,12.85553597,77.51418371
ePBjaDUuGtuymix,12.87054648,77.5473878
VrfRpuzBUMDxjnup,12.99567416,77.593764
VrfRpuzBUMDxjnu,12.99588544,77.59440727
HdsBGVIyzmyihid,13.02131498,77.53577013
pZcqIDthfrTpuMt,13.01593345,77.62799468
JrYsUgGRlzTsFe,13.00748094,77.67148347
JrYsUgGRlzTsFce,13.0080219,77.67170394
QIyctAitfynjKqa,12.87497929,77.667836
LOVXZvPunnsecxB,12.86822107,77.58416433
DcAaqVlHyDEuCKs,12.88039629,77.45121743
OQkvUvgkwFPXvhK,12.8559143,77.71039881
eiqECNBhHmLHJcM,13.09377035,77.50593097
riyhEsRnFpJpVTb,12.94863828,77.46252111
jtkFucyInjewkKF,12.91175956,77.45624251
QVACCtccNXqVwNr,13.01791123,77.61585559
hQemnWszjIjnIgO,12.88132164,77.70880817
rqWJqwaVxtmPPvC,13.0554953,77.61063444
RYdwfHZlXTMLBpu,12.91626329,77.72086868
BwwVdvPCAvhBcqX,13.08282528,77.70338029
KqxWWVadVBWNzOh,12.89703444,77.48458599
WDBXDiGNkfGQDJG,13.09537776,77.5256878
EjlmwpMIQNBUuuD,13.06637957,77.60393903
txDIoThfwSkilAe,12.96074606,77.58380329
HhwoXuhbFEDXuZ,12.99526079,77.53836274
HhwoXuJhbFEDXuZ,12.99517508,77.53857618
hyiTqGdshNmmqOX,12.88594012,77.47452674
FOOwqeEnfLGROlX,12.88828708,77.72600822
ehmhaOaBKynlevE,13.00888566,77.54629339
NuTTnVbCnAFtkQ,12.86738841,77.63159598
NuTTnVbCsnAFtkQ,12.86677553,77.63231213
kEWaFsCFdmlkkmf,13.08476895,77.46654351
hoRurjUtRSFqVqH,12.8631468,77.64140006
ckGdVLRrGSKEkCr,12.89425475,77.50131758
SLBxdnPXZhVVbc,12.94302208,77.45695599
SLBxdnPXZhCVVbc,12.94207955,77.45619683
QQwiMBOsXKjKkD,12.8596107,77.67429464
QQwiMBOsXKjKkDR,12.85866263,77.67339577
KPNszYLaOUtlfDW,13.0284528,77.73163621
OpjtOxeekjSGWME,12.88752607,77.63141427
fvKXyyJrqHiURP,12.88852171,77.54724394
fhvKXyyJrqHiURP,12.88931196,77.54723409
QfoPbXPXvBDQyje,13.06393028,77.53557909
LVlSBNxEERIFHbMa,12.91766016,77.52775864
LVlSBNxEERIFHbM,12.91668359,77.528186
GjnJbQtfRFTZftvl,12.9144831,77.56266522
GjnJbQtfRFTZftv,12.91465789,77.5621456
pqxDWIePiDUCOpVT,12.91345,77.49425564
pqxDWIePiDUCOpV,12.91348758,77.49459994
RAdodbtcopxMdhc,13.05688002,77.60212594
YDfrDaRrRjNDVXb,13.01727864,77.74043613
cxSMhTDnkikDYmB,12.85290844,77.67624932
sBekKTEtiVjJmwkK,13.05299516,77.64586015
sBekKTEtiVjJmwk,13.05351496,77.64509555
LzmCQYJbzjdynny,12.90007919,77.74021021
qGhHAimoGFrGUOu,12.96243257,77.53432784
mzyXaIDiahUBmlll,13.0829622,77.55984613
mzyXaIDiahUBmll,13.08359706,77.55903282
PQZGDqElFZjNYQE,13.07618372,77.46145851
puOQmLhHLiEOvB,13.02301251,77.51792649
jpuOQmLhHLiEOvB,13.02268092,77.51758777
qoiLyJBHIgAXOc,12.96977632,77.50490135
qoiVLyJBHIgAXOc,12.96982078,77.50550459
HmqofMelkAMeVZ,13.03069878,77.52518609
HmqofMelkAMeVVZ,13.03125993,77.52587231
XbhGTlkcGEJhXqB,12.96343387,77.47156011
VUUmoEigVovEGDt,13.05297243,77.59796092
amEMoWjVfqktnHF,12.90784197,77.53276297
MaphqzNHZkZerwg,12.88187585,77.65965716
CTzqBENdvuNxlNi,12.92119509,77.55063664
qjTnVtTxUoYoREKH,13.0701858,77.55014854
qjTnVtTxUoYoREK,13.0696533,77.54966478
HlSyHmksRgJpAOp,13.01364912,77.51061338
lUDSOlVnQFyLLnJ,12.87670604,77.48142202
qZcJaoNCkccwFU,13.03926376,77.63558529
qZcJaWoNCkccwFU,13.03948986,77.63512627
kewcosmbRTHHBCS,13.07089751,77.57875956
opYpQLMQgFVIzakR,13.02762629,77.559448
opYpQLMQgFVIzak,13.02690908,77.55991787
nlBoAQmMrAdOyim,12.9098223,77.44523922
aYIIOZNqNtyvbJo,12.88035852,77.6988874
XpaBaZBPWxTwlyd,12.86222775,77.61040324
srdxilrqHVUKLOO,12.96306184,77.58648941
RTEMZabMFvPYMnR,12.87395545,77.59379577
yiyLnTQVVsJhVbS,13.0138967,77.63215695
rKZaoYPyYqmScAc,13.08854995,77.70692738
JKPBIFgeyripHYW,12.9711393,77.57592352
eJcqbZhBcksxytf,13.08295048,77.52882039
caNSZpoqqkrLcmd,12.87631783,77.52649607
mWESAXnPmfyneRx,13.01995455,77.59448726
NKaTyQNjoRAszyG,12.92812123,77.49229382
kggGpPNiXIPDuqs,12.91860492,77.59143186
JxvnSpmsVoAJFF,12.96837345,77.53820513
JxmvnSpmsVoAJFF,12.96810947,77.53904929
iwLDxSUqeHQMbPc,12.937181,77.66867283
aNXhldbfkuhEAiY,12.98104761,77.70846956
cATceyPXUpHYsMK,12.93519328,77.48953658
iYOQOntLdIiUJWwW,12.87502247,77.52545081
iYOQOntLdIiUJWw,12.8743254,77.52629088
SkZYKkUsNEzIWm,12.95449402,77.58831544
SkZYKkUesNEzIWm,12.95489064,77.58775993
eeKnmeTTcRvKIbZ,12.88412783,77.46310344
umhNiUbjXbBBBUn,12.89807945,77.48388805
OwBZhFTwHEfwLkU,13.07894287,77.58206644
xoEdnZUApqbEnAP,12.97412037,77.68116826
dGdWIMrVPnswAZPp,13.05054486,77.68695156
dGdWIMrVPnswAZP,13.04990043,77.68646569
sKElwdLVnLwjhZEh,12.91583997,77.63370276
sKElwdLVnLwjhZE,12.9167183,77.63381621
uKJSgCZfSmCxBwW,12.94809326,77.73842333
HwhJHRrPLnyiasR,13.04291139,77.69743171
QaPDKrhDoxMXILZ,12.9335257,77.69619617
UiCTxOPUOjKDzVSv,13.01494697,77.50736767
UiCTxOPUOjKDzVS,13.01581531,77.50645658
hLnBfqHPAJEpCVh,12.89648847,77.57555169
CzxesbMKSwUAcTO,13.01220361,77.58596745
MSxAtSIqkPqiEcb,12.92140666,77.51586755
OJwJHYKMIkrlUco,12.87410376,77.69104627
SWhmohQDzIXeGaX,13.05863178,77.63539656
GiZPUJwFzszBmxI,12.9351956,77.57338284
IytuRjvmrUlilCC,12.9053709,77.48309378
yjYvGBpjQeYtOtI,12.94168385,77.47841458
fqsyMInuQxDnyUt,13.0680193,77.53191218
rEibECARVGevGzo,12.95182429,77.7071573
HbfEsOaECdmcdsU,12.98828991,77.48787864
RSNgWdukaOnqhNI,13.0245319,77.66613515
AljOKMHcNDHLPPT,12.86292853,77.51977339
diyxuraMFIbQubL,12.89988663,77.44717959
KZOuWKDniFQPyYGN,12.94152361,77.45155166
KZOuWKDniFQPyYG,12.94200549,77.45136624
ZJrxkcjMcHsqaBH,12.94233721,77.47907661
DliYnoziYgRbMm,12.85895701,77.67396635
DliYnoziYTgRbMm,12.85947223,77.67395942
SEndJOAxuyEYlGik,13.09086958,77.53732427
SEndJOAxuyEYlGi,13.09115769,77.53718909
UswyRHeeYaRwPjR,12.88182186,77.47168562
lPdNkrwXcxueHGm,12.88655693,77.56512637
LYRpSqZaNeojwqr,13.08897766,77.46153818
nUZHDwNStxYzQRu,12.90958777,77.61801624
JPgslMgZSqSLIdY,13.06072232,77.52330902
fryPzVNafrjMFuq,13.06057486,77.58835576
RBTIJNOZgsRcAhe,13.02601923,77.71638355
EwlNaEFAdiSMJje,12.97245003,77.66982682
UBGnVhraXjyRTlR,12.87834624,77.67102988
DbFVdczFEopkSfD,12.91560596,77.61656917
zdMzGAUJNExgYJC,12.8788168,77.71913278
yFfWwKdQXlTtQDk,13.02774937,77.7060164
JjsFDeoQFFdVsZu,13.04450037,77.59387042
ythhpBuudzCMURc,12.91421651,77.62819973
ZrjgfHZsEwmxnhX,13.09630574,77.68423579
aIBdBmtMPPZRDAE,13.0042156,77.66020901
RdVjNqLLaWjSbtNd,12.91621899,77.66754385
RdVjNqLLaWjSbtN,12.91667953,77.66754685
ygpmDkQStSbghGX,12.94100979,77.47467715
IyFsCZdFdXivDng,12.98153402,77.71547407
rDzqEidMnAcCkkU,12.95938541,77.59654896
znmAfCFhToxyjRZ,12.94573709,77.50693847
XvaUqLUlLlsxlxc,12.96673245,77.53907915
KzIfvPTxurZZysCi,12.88278398,77.48912685
KzIfvPTxurZZysC,12.88192156,77.48948075
CHYfnHsXRAOeoAU,12.94446973,77.58233926
rObzulJNhfFPric,12.96473184,77.61081534
ggodkJXeCoMqgPh,12.89727196,77.45852131
MjeSyJGUguGuBfc,12.94391415,77.45699585
IGHYNOxjqaTzdMJ,12.95670419,77.47596365
XTTWDYoTgeyLIZL,12.97833576,77.45738468
mjQpnXNJEkrgjFj,12.95667702,77.7021104
JjxehSLQrTtpdTfL,13.03366267,77.68652246
JjxehSLQrTtpdTf,13.03326978,77.68666333
kxFfRCndxbkgRy,12.85355802,77.66038369
kxFfGRCndxbkgRy,12.85364947,77.6607993
VIFKtwKZJtVEbGK,12.95910209,77.47191432
VojyDDmVUACUpgn,12.86074547,77.63851635
XWhuUncPaQxFZJ,13.01293565,77.61792261
XWhuUncPaQDxFZJ,13.012127,77.61696466
eGMxPXNRMgQrMvt,12.92727207,77.64493021
ihozRPxDPkcHLPx,13.04980892,77.55039356
ShcayepooKtuENXF,12.95407249,77.56996961
ShcayepooKtuENX,12.95501617,77.57063763
VbyvMtliYFNYdIu,12.95802332,77.57051359
ULUlaMQoAVELdxY,12.85555864,77.50901661
osoQUBueAWYyKBt,12.99276125,77.58585884
hlEGlIKTvkTMPZB,13.03974836,77.52923722
LXbgiidijXByDoE,12.95462557,77.64403001
phaSXRCBVGpJuiv,12.89704038,77.64719661
zJCCOqxTgTiQvuR,12.95240493,77.68577503
yDnETDTcakXPjR,12.86612335,77.64652201
yDnETDTFcakXPjR,12.86585281,77.64573568
EFrEJMUTPgLZPiN,13.02110412,77.62201157
HVHETwdOdxbPXgG,13.08008591,77.52083916
EqNWQDRDptWLbnJ,12.97029562,77.54817148
wIyHIUaxZOopVnH,12.93126501,77.73187473
SeIHjmtjrdTQwQp,13.08063642,77.4495076
hGrqaNBUKpPOBRJ,12.94662937,77.52197352
RgJPNhctVQZgKQRu,13.01737914,77.7298667
RgJPNhctVQZgKQR,13.01691147,77.72928218
NDbFQQAsqhGpmib,12.87944479,77.5013619
UnMgTkBXGfkvpNH,13.09517897,77.49612365
FCfWltFxdLDdRag,13.02854416,77.57298265
nwKVqqwsQQVNYNR,13.04263092,77.5725336
VQmPnIsbkhHxUPy,13.07896485,77.62176861
ejCQtcUWeEJYLr,13.02281439,77.60900244
ejCQEtcUWeEJYLr,13.02191409,77.60940243
uHuVMvkgWJtVEqj,12.94706072,77.56108035
AXWkbXeHbPnbhKu,12.96226281,77.71556765
nAamdEdSpFWdFxY,12.87058012,77.7191452
mdheLZBLEMVwIIl,13.09358006,77.58651135
NFxvzfwiPlqQEau,12.95697126,77.56077177
FCNnYdUHVLRabzC,13.06851708,77.57518106
QHLNFMdwGmqngch,12.97585394,77.60066017
EKMHSDtDRSPnOVc,12.92814651,77.45749445
iMADuooMKHZDxqp,12.97929212,77.68418772
HbqQDnwTiPrRglr,12.88175438,77.73369344
svsEGIuuNLiaqmi,13.03051982,77.68020174
muDAemNDMQYxggu,13.09656738,77.68465538
eqrszFwZnuGOfF,12.86507331,77.72587765
eqrszFwZnuGOfFB,12.86600615,77.72685131
hjnufjmKbWbGbof,12.98666159,77.71931879
iKYYqRWfxMXViyNm,12.90563044,77.73077088
iKYYqRWfxMXViyN,12.90654206,77.73156885
mFtxgZXtajvTJjS,12.97083083,77.61357575
RrXzTBmgutyGDUH,12.88864257,77.69007009
GrQxHGoaeqcKfbE,13.00995618,77.60285999
bAmxUvzUBXWGXW,13.0593533,77.52186135
bAmxUvqzUBXWGXW,13.05997574,77.52170744
oYqVheEoDJVyUwg,12.89972034,77.53596577
NzRuaibXbObIUYB,12.97036819,77.67864193
WDqJxetvRGSPKZP,13.01331358,77.66420797
oPxNNnywyMKCLWG,12.85421345,77.45534639
HIrtTeSlAOZiJL,13.02095229,77.56433396
HTIrtTeSlAOZiJL,13.02136287,77.56362039
ThdSSqxeJFOalhu,13.04287479,77.51712395
ttORBgRKUpOjLtS,12.92791611,77.57544866
SyzlOXcYytwGwLZ,12.94178515,77.71136087
ksBcxQKcIKDSqdmA,13.04815723,77.66466153
ksBcxQKcIKDSqdm,13.0476686,77.66514359
DZqAnNVJJPuLjtI,13.05042344,77.53023764
UDJoyonovlfYnkQ,13.06960844,77.58326929
SvxlBZreZYGtqbt,13.07793335,77.5511331
VJzpDixhoGkQGYb,12.92201034,77.45081173
RhirQVntjrtHtit,12.93815787,77.47151424
CLCEuNnxFWvungv,12.99060881,77.60836196
EpBWbHmFBtBGau,12.98836906,77.70916445
EpdBWbHmFBtBGau,12.98760985,77.70825251
TeRPyAvBeyITiAW,13.09575265,77.67009541
pHjIaIqedjOcRak,13.09484608,77.55757098
UijBxXWggulMOyO,12.9895399,77.6196293
bkWeKyNOozeUQR,12.86229725,77.73549548
bokWeKyNOozeUQR,12.86258269,77.73519455
eaDyeRODYMlofZC,13.01781148,77.63220469
vNShuZIOFLgOYae,12.91288971,77.67821538
YyqVyKROGocLaIM,13.01727219,77.60469069
MXQWgQLsnMVulPz,13.04499113,77.64402306
FlRTCIrwJoYSrig,12.90777995,77.51473642
WUIeAjwJIhHtnUh,12.96179342,77.5901871
AGwKThkWrVaJVIW,12.93429248,77.66695954
yntheIBrUHiqLkwN,13.03323565,77.46534578
yntheIBrUHiqLkw,13.03313926,77.46610634
btEuYCtKQECYMWz,13.06411002,77.5196884
PlrlygGPjUoPJyzU,12.98083731,77.6580627
PlrlygGPjUoPJyz,12.98120675,77.6579893
ppPQiFsvTYFGBsZ,12.99607215,77.45307197
YXPOkbQocsPMhxr,12.8833869,77.6086406
wWDkktpOHoagWsV,12.87675542,77.49743235
ZriRJkccaKgqOLU,12.89685919,77.46798248
ENJYIwWsohEBBrG,12.85586513,77.58565401
fkxjzqAhtELYrUi,12.99867829,77.63725329
pdjOITcorHYaAhK,13.0761062,77.70556971
qBqJesUcRGPMtEN,12.90293522,77.72498437
nigBgLBTLevQSod,13.00159563,77.66069244
QUTiWRTHJQVWDrV,13.0129817,77.51540266
zCjMilSBYsxOsBw,12.98447251,77.45088515
tVEMrZCrAvbjhbN,12.89708945,77.55586094
MstczrsmgYCcFQz,12.93695666,77.63855383
zAwvcEExXCRduoY,12.96344243,77.7413129
YifJwlaUYROtUwj,12.98846203,77.6470588
yBsBgzFlIykMNFN,12.87295645,77.65014706
JvtckJIQxIzVvHFD,12.98850065,77.70256983
JvtckJIQxIzVvHF,12.98792767,77.70327581
OQSobZIOGkPwWHY,12.94073398,77.64911974
viCdwELFiWmTcCoO,13.01022811,77.69298218
viCdwELFiWmTcCo,13.01058765,77.69290511
wxETtuqSHfxNXsM,12.95947564,77.62396496
LgZbvfQruXhouzb,12.89078478,77.58159122
nvnDykqdMeNdQnr,13.02435651,77.65233559
kpiJOtuklbWFrP,13.01275091,77.5765419
kVpiJOtuklbWFrP,13.01368191,77.57602475
ZecShDSqLfQpRce,12.94561601,77.49727641
WCyMdNPxHeywFY,12.97608749,77.67403742
yWCyMdNPxHeywFY,12.97578491,77.6740566
tuNKFdYnkHPmHYn,13.02962851,77.52195215
oLjzsQTspioseu,13.00594883,77.51914728
oLjzssQTspioseu,13.00515415,77.51971517
kzSnNLequNAZqhV,12.87618813,77.50079468
HVTCmTagejrRPAb,12.99622918,77.60668722
MLGufBIGOnYwjEk,12.93081205,77.65834922
kNOKOMRwJKHYcet,12.96974548,77.46050284
hVWDetAiBkWYUsL,13.03975097,77.6683115
gvGxfhRJBOxNdKv,13.03778208,77.45534404
DcvhJRBcaooBAur,13.0233549,77.70106232
wxyXaMgsVzkHktD,12.87209828,77.58077484
QNaKLpVCTubHDaI,13.003416,77.58650926
yJzUjiovgwcozKRa,13.08460697,77.69486568
yJzUjiovgwcozKR,13.08385799,77.69402078
IQGUrRxAfuwRtik,12.99828127,77.58094506
DZNNNIxUyXLJsoE,12.87198952,77.48385966
nVGhbdoqQtyULlL,13.0872072,77.45391905
jlyftfafQOJNJrI,12.91065854,77.49098793
AAAUYpYhFgblIZH,13.0386195,77.67991012
DmoEGVGxnBJqzfLE,12.93682335,77.55718558
DmoEGVGxnBJqzfL,12.93757739,77.55724204
gZOALtyPHWNDREl,13.0520244,77.64161019
uzcAsTTLZuuKbDD,12.87241082,77.58128542
DcIgPwwIQXsJMMiV,12.991963,77.61573528
DcIgPwwIQXsJMMi,12.99192063,77.61496472
McWixfcCkBuvwVe,13.04867864,77.61608954
vQKtYINpsLRmjoiw,12.86312093,77.69866511
vQKtYINpsLRmjoi,12.86276687,77.69868038
JdNCQXUodWcRnxs,12.98695374,77.56235634
AqGKZbHjmuwyQEJ,12.9782239,77.55507003
oPPCoXUBHGPssuh,13.02053195,77.61624966
AXcQHXhVMHxWXnN,12.96561214,77.66082081
GsfQOFJAwNmHBRDl,12.8913548,77.71482671
GsfQOFJAwNmHBRD,12.89192386,77.71483401
gSupDedMmWizQhc,13.09405844,77.45811174
DXiUDpSkZnpeRZx,13.021322,77.52580396
QUOspJHsoxXotLC,12.95364528,77.69499917
nrNAKKGmxApcTXM,13.006342,77.73854867
LIgJXYqLeYrhIxG,12.86216972,77.72478456
QfhtdcAzWmEjJIV,12.87033809,77.52963827
DyihmGBQHYvWUxt,13.05757025,77.67468844
TVbdZKcWkZrFQof,13.02691514,77.53940994
XQXaAOHZxBXwulP,12.97673661,77.53580359
cDLlnRziVSbgspT,12.95725606,77.6139807
wYEjEaLbQkVMarfU,13.01555855,77.61269657
wYEjEaLbQkVMarf,13.01620372,77.61320071
bdsoSrpXMhTFwp,12.90905838,77.60225964
bdsoSrpXMhTFwBp,12.90925894,77.60278778
XkkANYsdonngWNz,12.9213959,77.45768598
wOTxAusywakKyJF,12.87167364,77.70862376
QyMRkLclqDvThK,13.06355932,77.69463775
QoyMRkLclqDvThK,13.06268653,77.69531363
KnSFawfjgClVeWt,12.91149332,77.53198361
rBHIZqhxmULhmsq,13.06606466,77.60253964
SqvunqmgBoNmPHA,12.99718505,77.53293982
bMAOlaFbDgFtKyC,12.97320735,77.5288749
kssMnxzknoUrnFnY,13.07640276,77.61050134
kssMnxzknoUrnFn,13.07697525,77.6109308
gwxNKRBtYiYPPKet,12.90588291,77.69291069
gwxNKRBtYiYPPKe,12.90623846,77.69204222
OIMxfdoOxTKoAOU,13.02114166,77.49766798
pbJQqfwrzhUQszS,13.01645899,77.63725477
edZYiIwHqiFXgKd,13.03859986,77.54677772
MHzkZrygrkUanpx,12.86084791,77.51248408
roZzdhxHnyBpObC,13.06860471,77.73799768
OTHGBvcBHYHABbo,13.0312234,77.50029907
RGJbqIHqCxArLnh,13.04299278,77.56603279
KJWRAjPsDTDQBQn,13.06102012,77.59125052
miAHxxGeEHXAqiX,12.97197088,77.6566144
jclobTUSDXATxYD,12.99985467,77.51491497
QNUJWfGaiYOsuXO,13.06621901,77.47241308
IMQRcIrlILIlPIM,13.0756131,77.4633644
kYxcnFVAcWFxRCF,12.86589818,77.68404451
qurOYrhIpbCIHIM,13.02337458,77.52875788
OHzmvHVqvgUUDCk,12.90295363,77.53103511
PrOATJxmYiNVgEw,12.93916847,77.61416048
ZOYyEKDRqhUXKKN,13.01514111,77.5818814
uIRZmQEpyUSyer,13.05536979,77.65201312
VuIRZmQEpyUSyer,13.05584489,77.65168234
OeYGKpmhMWVfiYj,12.91201023,77.61843588
DQCGKtjZvLyhOR,13.08888615,77.72690169
DQCGKtjZvcLyhOR,13.08851332,77.72676781
mpaMejIvdZtPsyj,12.92660002,77.56617768
CgwiyFeVZzDJQPX,12.93655063,77.49437241
YrqSIdVwMkxzvoG,13.09457132,77.54489281
kNRMrIyvyoGSpzel,12.97228583,77.51123832
kNRMrIyvyoGSpze,12.97147315,77.51027199
KTSArvsIyTRCYrC,12.90946223,77.473599
ZacICCkUHEsTumv,12.90718975,77.48288729
aHiJYFRzOoIlPKV,12.99532364,77.7120923
eMhOdUupJQWEPac,13.07250642,77.4925925
GVPjqIMUJlFUvJN,12.94729928,77.63260068
afAWcqVjjplgSL,12.98892219,77.64868033
GafAWcqVjjplgSL,12.98880106,77.64926212
ZmRBuAXBpYunqOG,12.95572828,77.48962175
dneOgmXoMmEQxKM,12.85655167,77.74282634
XqgnzIEOeYGXKRP,12.94654495,77.56624821
JWHaYtEASiqlyIq,12.87636767,77.65121537
AExZxrhKXnQnZKc,12.96445979,77.50466572
wOJMIwLaUYvaQQqp,13.08080737,77.59986131
wOJMIwLaUYvaQQq,13.08084243,77.5991517
TKPUrScBxcxduzn,13.04627118,77.51107388
bDjLGUIHPxrVvsf,12.86237888,77.64272737
jZexcTgOpijudUD,12.88381213,77.46156093
qjBuXYzYVRywuGP,12.92284019,77.7100374
cTsxGpTpzSDHesQ,13.01737455,77.6146194
zPzteoQjRjtaQlq,12.87994589,77.6539744
HcgEIwwxQvUGZva,12.96597906,77.61429372
MXsoMLRlegeewe,12.90912525,77.64608513
MXnsoMLRlegeewe,12.9100984,77.64612949
nFoksQuGPHZvdxX,13.07822112,77.54243458
tUDnwztTtXPqGrh,13.08405423,77.67171303
ycyjdwDUGPrsEBz,12.96566996,77.70251953
ypnwHxroILiAPco,12.88632166,77.45364446
iShbfpbjiYLcYae,12.88120716,77.47269334
cOpwumIMGRwqmHG,13.04510314,77.69382866
AgaeiOFdIMPztdH,12.99620033,77.63136012
dhAuMBloDWSawYo,12.98401169,77.58672245
EnPYmWPdsRmINNP,12.86332928,77.4925259
fqxEXyfmluNitgA,12.9995849,77.70054281
QsQOOafZcHxOuGV,13.05967963,77.59918957
UEoORMtXuRsupyU,12.99057153,77.48525387
nmUPFWDdsYjldVx,13.04547289,77.58421423
OFwJIEVwsYekdNg,13.08250055,77.70901082
SfIlanuLpupWfNg,12.86016982,77.53253698
UbcyChqIpzYwwfe,13.05427094,77.5972489
ASqOhkMPLitAfiNZ,12.93023349,77.56459697
ASqOhkMPLitAfiN,12.93094101,77.56540653
ZKhVCAoBUtjfXMZ,12.89771345,77.47551183
fPNbNJqCoKwUJPG,12.90423911,77.47542964
ELFMjDZKiKDkPb,12.91091577,77.52711724
ELFMjDZKiiKDkPb,12.9108404,77.52786972
aqNNlWoCodCLuYdW,12.90516056,77.71401084
aqNNlWoCodCLuYd,12.90614332,77.71410431
NUOUxsdxnKckZNK,13.07701057,77.64683514
gwlzhLuSUdHUApc,12.86299756,77.72908302
xjYMjBoVaxBsjRG,12.9625274,77.55101549
NXPBirHfeoCEDxk,13.00437447,77.59086741
qwHStrMNKlQHpYC,13.05051824,77.52870408
dwwTYKTahBmKfCo,12.95267893,77.61122068
YvBufbbHmPamKgn,13.02239644,77.44946306
fbnLnTcXReshLIf,12.92243705,77.64644308
KmREioufhSbhARF,12.85533738,77.66548026
IfveIjwrvoMpcVJ,12.86342906,77.4784783
JmwTUNKLAlhwgSW,12.93400255,77.6990974
FHymYihWnHrKEln,13.06358796,77.53847769
xsEHjyAMSLanbYgQ,13.08995806,77.5111413
xsEHjyAMSLanbYg,13.08942455,77.51183356
LEMMgebFNIaWFjb,12.95036676,77.571414
TxcZlnbxxmqHCAO,13.02942165,77.63037832
iHBlwoLYfJsgDLZT,12.85417875,77.7044991
iHBlwoLYfJsgDLZ,12.85414958,77.70362796
ffKKHOAqtWoeSas,13.03617227,77.45230669
iqHWzbFUVbqwhG,12.99676882,77.70696259
iqHWzbFUVbqwUhG,12.99643392,77.70747113
cerUIhDWMuarFvh,12.92709392,77.52944314
EcDtskYbPKQGwSS,12.85345818,77.63487022
fsdXGxHnHLzUnN,12.93654673,77.69050415
fsdXGxHnHLzUgnN,12.93729217,77.69067535
NOupxuVdEYOlBYr,12.976225,77.59240715
BnwZshlHdZAVOhm,13.0201177,77.7011571
bDlQrBBlvBsRsF,13.03800986,77.44858647
bDlQrBBlvBsnRsF,13.03785063,77.44815597
OcZnAwYDMvcwqrg,13.01147771,77.45596858
uUhVQIerPWFWCDa,12.95467356,77.59838804
OrauQVCaMeaXaFu,12.99022292,77.5086631
IwNOFBTdewRlFKQ,12.92251584,77.6528269
QmFrnmsOeVrjUG,13.02727277,77.47216409
QmFrnmsOeVrjhUG,13.02694877,77.47121446
NlfaFzCEuwqtNxc,12.86822519,77.70579246
YSleSlFveyqLteK,13.02420672,77.61392037
kPgZYkYYEtLxJGw,12.88413276,77.50501983
LZvLsWyjhUQDTWf,12.92540881,77.61108369
lTJSohlBZgTLTip,13.09535453,77.55682483
WysAaTOvwKNpXQV,12.9342485,77.5141147
dtlHxjIDZmWohg,12.98057275,77.69387753
dtlHxjIDZmWVohg,12.98005291,77.69435645
vIbUEYCNwDSXBAV,12.97521786,77.60457045
qfXFAMKwzalfElv,12.85655069,77.55894842
xvFncfBRVbnkNeo,12.86227195,77.49458437
JmkUYtkehOIZKfJ,12.88353605,77.54575571
BQaClRPIzWYDtRH,12.9061831,77.54243175
DANxTTervUHetjO,13.09629079,77.61798531
YGNZRcvhoeheLLL,13.01820694,77.46707362
CcLuxvRxLXozqss,13.03892662,77.56892834
ArLDEMFbJmrTjm,12.96846449,77.48094713
ArLDEMFbJmHrTjm,12.96911888,77.48182245
dlavnQGrbTgZiOd,12.94928073,77.63372874
ImmgnHZrZBUFQYA,12.91478751,77.60658603
RPcEVwnwADYJChe,12.8670254,77.72320006
YzIiRtbmwpkHgLh,12.85993149,77.50144739
lpaZryPPqOdruHw,12.90705958,77.73744587
obbZBObJJvNyfh,12.97500502,77.4539853
obbZBjObJJvNyfh,12.97536098,77.45495111
CohmRHmjBedgvKH,12.97593561,77.64011886
JFegCSRRKulHzJz,13.04776898,77.62167207
ebNBRJEhQPKIAXe,12.98494573,77.69767843
UknOBoSKPfoHvFqW,12.85259873,77.72102113
UknOBoSKPfoHvFq,12.85262004,77.72182778
wLOHSUaYbvJjTO,13.09426568,77.74184135
wLOHSUaYbvRJjTO,13.09426173,77.74248819
ZLjXVZSgnZNdQcA,13.01340054,77.71451036
moJSTSGlxPBnxcQ,13.08315736,77.46248282
juYnUwSLfBBirud,12.9628489,77.55670293
YKepisVUNrEDUXd,13.01249094,77.60515366
CslPOJWyhUbIodw,13.00043841,77.53360126
MKBxmwiWDxUDguE,12.86364686,77.53285169
YIGsqVnCBHOfaqg,13.05305156,77.46272027
nDypwDLoKfdFQXs,12.85399835,77.5309141
yqiCLLRwflBLVeB,13.04594802,77.69269223
SEUxjsUZobCMCyd,12.89146969,77.52642376
XAACkkuanRMwSih,12.97970903,77.73799963
UgZnLfBiDPBVgUL,12.85699568,77.70412564
GiCBRFQCerjLfOA,12.86191452,77.72794434
ziDUDocpITgivoVX,12.86191333,77.55407438
ziDUDocpITgivoV,12.86179841,77.55441762
udAWPeonbWxRqbL,13.06930538,77.6013084
gHgdweTaCxRSCKfv,12.87676144,77.7359242
gHgdweTaCxRSCKf,12.87604747,77.73566203
iGnHvKvSBWuzWK,12.99884139,77.54737327
iGnHvKvSBWuzWKI,12.99834218,77.54833954
batPEWlSDiRvIG,12.99771026,77.66949711
batPWEWlSDiRvIG,12.99767771,77.66976871
YKadHdLLKtNetb,12.92439817,77.54404776
YKadHdLrLKtNetb,12.92418545,77.54416153
YxTVsDtCeybUSjR,13.0748136,77.689848
XCiPhZNkAZdKkHs,12.87514497,77.55784667
lhJcytbnFvSMze,13.06136216,77.50956389
lhJcytbnFvSMzGe,13.06233533,77.50938392
XqkoesKWflHuEvh,12.88528366,77.52795221
QNpJoCwcTVaPzJY,13.08964111,77.48521234
rkCrtpwGJRCAEKH,12.8633393,77.59190204
nuxSTiAkTWrzCGJ,12.96832258,77.51003113
oOIwMMFriFmBcxa,13.04214625,77.69052174
gpoyunMNcuzHteJ,12.96231962,77.67957977
BwmBFTkEDpKgqnt,13.04549985,77.67133093
ojidCvRgtCDBccK,12.96519214,77.4461531
nOTGHnRgLIPwCCF,12.90588373,77.73696594
aclOxtHlEgHrluM,13.04709397,77.65056423
SSNArkBKlGuoIEs,13.01028483,77.52011264
lRrMADNGyOPGsss,13.04227526,77.60246438
zVMXEZuIxlnNCPS,12.85640155,77.66980264
nqqTphctyiRdZOp,12.89915064,77.73112726
nBLYWfmGYGotZPJ,12.98116994,77.57068619
BgUWlkGuRFXrecj,12.93752033,77.48390634
xmgkvJmejHWvhki,13.05668752,77.45811724
EnbhzMSeujAyRnp,12.96900083,77.64791836
dTFMsIeRtZYnFsZr,12.98577107,77.53006664
dTFMsIeRtZYnFsZ,12.9857165,77.53075789
imJnOtQGJwIhLul,13.00526448,77.55063354
fDAqCVvndgAQSSa,13.08329344,77.66699381
BJTJkloVdusxAIE,13.03021191,77.62198122
efRPuPtVdNMzNDV,12.93170097,77.72100826
DWdIKYFCYWmcdNk,13.05261872,77.69844312
EIdwhCdpPhRQvGN,13.01583616,77.70275858
DeqFGsqRTtZfGKks,12.98026254,77.61655517
DeqFGsqRTtZfGKk,12.97987698,77.61714683
UrJoOPhvhAPJQoX,13.03186611,77.67206675
dgbyZIbvxDhIuPd,12.95748576,77.56441876
WWffmRACpqejDB,12.88178249,77.72240223
WgWffmRACpqejDB,12.88149867,77.7220706
TpAUIvdWEgcgmmY,12.86321276,77.51279037
aPvjjtSIaeCpeUca,12.99110206,77.58822458
aPvjjtSIaeCpeUc,12.99078828,77.58789588
CQOfoFymeLCGZnd,12.88828043,77.67875006
XFxQiReplFHwMZU,13.03088203,77.65730191
eDWtFdnPCswrGHL,12.9751883,77.66064407
ITEsBPJKHKKlyJ,12.98662858,77.44774472
ITEjsBPJKHKKlyJ,12.98616326,77.4479393
yfvYHDNIVMAmzux,12.91520834,77.73045267
mgHzvcYFAIpMcfe,13.04435454,77.55973256
AQuzkymDHGlnILj,13.03518752,77.59351949
TqHMxSjIvJnNrwCm,12.87041409,77.50391754
TqHMxSjIvJnNrwC,12.87040367,77.50425168
hPTeikmBjGLFXss,13.02713692,77.50679892
sowtxoAvIXqSuQi,12.90370332,77.5451356
riIocuAgmOwZOVc,12.89911301,77.49690471
AksADJRiJgojcbn,13.03673553,77.64968592
LAZCczVOrTFPZRZ,13.08650439,77.73302155
xsJbQqwNdmmflZC,12.89889269,77.58360367
dQONPSgcoZcfLZC,13.08712919,77.68719655
WcDKfHvoHSJQgCd,12.88359932,77.68733685
CPbwfEqWavYPEyVN,13.02098473,77.55110594
CPbwfEqWavYPEyV,13.02081193,77.55150382
BHiTkjjNIzQyuLs,12.90415641,77.47363018
jslcvShKuQAOhcX,12.9136105,77.58826337
tqKcAjbbpZpdUWI,13.08428932,77.4638597
iJIaZfuuFuINPeg,12.97834315,77.48631911
IMHlEeGaeWFdnEU,12.92532453,77.71772399
mbixgZDIydaiHSE,13.09347643,77.6279162
XRynhhszYKIAFfO,13.07326213,77.54733898
iQhPnpwKeOPrSUF,13.05804175,77.69401354
zldBIvmqdoKsdYD,13.08814355,77.7385922
JlCHgwrvGRQEXQQ,13.0546199,77.45783656
lxWIuBUyMMsAlTH,13.05734875,77.71145368
fqNoNywQeKQGPub,12.88736915,77.57542804
vnUOYBRdPzziMAd,12.93471006,77.71946409
idXOqawoKYAUHMu,12.87406716,77.56334112
jtXjZAktrwgYQGL,13.00917295,77.68516775
qdfBuXFwkDUcFKY,13.08371643,77.71110426
ygonFBHxYlXqxyc,12.85698971,77.50716406
PmnfZFEdXZtucoC,12.8992977,77.54192867
TDFDAYSQtfQNGln,12.87466352,77.67678531
dqCUxJeYPoIzhSM,13.07067431,77.6451985
COYAuZNIkHAvQVS,12.87388153,77.72224296
tULCMNAxUWSzyac,13.05668982,77.72716487
RIZepOMGrytMHKfT,13.0321939,77.69809207
RIZepOMGrytMHKf,13.03199966,77.69713564
ufHBmVWJhiSKPxp,12.89617934,77.73596058
bMNOZJXRxnBfkgV,12.91755884,77.50213785
uqXoKFTmhyJfLef,13.07680214,77.50030062
wAYpOllljzulmxh,13.09327611,77.45245662
YxOXgnEoNtMcehm,13.06596166,77.66887352
DHlTcIzeFZcczXW,12.98911067,77.5378911
HnnyjsTcyiLHAHr,13.04335843,77.4567136
DUVxvqoCCAKINXM,12.98007893,77.68741584
nSUpoDsnDFQCDoir,12.99370437,77.5891565
nSUpoDsnDFQCDoi,12.9934873,77.58916875
IHcuRbBqWJzqQOW,12.97625149,77.52402077
yxGBmVQGfvwYTgT,12.90392218,77.46025509
gfdUqOagIbaPyTz,13.07926862,77.67929604
iyglTvNrPzpGSRL,13.0611343,77.69699778
RTfEQejHIVTkjnC,12.90582067,77.48962347
cqQtPjnohuSHjSW,13.03850998,77.56976269
DJlqkBEkmxyyAFK,12.95255739,77.56650003
OEzetCWBgjDKYPX,12.87373108,77.64909822
VsPTygXeRAPgbb,13.0619965,77.54679064
VsPTTygXeRAPgbb,13.0628343,77.54702407
HMOOCCKXskzSsx,13.01392495,77.59723185
HMOOCCtKXskzSsx,13.01357702,77.59796156
XhwdoYsfhAMzWLD,12.96233309,77.55015367
PlBpOaUZObQydmm,13.09554237,77.72954186
RpFzjLjdbWGzKAc,12.89331413,77.53357869
adarSApyGfAYyEC,12.99111768,77.62748156
UbxuGMaEmGfSsqK,13.09574855,77.49963703
EwGgcfzQWoDeXTW,12.97242901,77.69461978
MMwERXoAOiUDKzr,12.97195924,77.7358375
PsnNKTqSHFQLVaK,12.85709921,77.67135395
DcQmDbGCLFhHzvz,13.04249907,77.68564189
KaFRSlNeXGzGpDM,12.95978594,77.73461707
sEMEEqdBjzdCOLNT,12.99496416,77.56356859
sEMEEqdBjzdCOLN,12.9956556,77.56275734
CcyTsLVsFmHgMCn,13.01883273,77.46968634
zjTHOxKjFFGVvvl,13.00228868,77.63654824
ASDaiKDqNwVLUys,13.08531193,77.68649038
NENJmOmjEsQQoVN,12.94703438,77.71029495
AtwxdjhUvlmfwS,12.97574798,77.64706223
AtTwxdjhUvlmfwS,12.97552819,77.64735682
LxdfxytuoQLIyhX,13.02341397,77.49726482
VwhHlmYKDmnEXez,13.04186377,77.64387262
YgNmwqqldaCxGrtm,12.96091002,77.66504753
YgNmwqqldaCxGrt,12.96170742,77.66586285
aRoHmazYDxBqtET,13.0156076,77.69044763
AfcAhMJFwGuppAe,13.03283472,77.46684013
fRZAsrpTWllmqAA,12.94625517,77.71049478
IMBfdnafwEGzwyX,12.86076724,77.64525026
PAhWZBVmSKYfAdm,13.06541125,77.57698532
qKxgumYZJdGjufa,13.01938983,77.71967462
SkgsHJvfgrSsGYg,12.97784713,77.54955971
HTRJNIEMEaQARCt,13.01158498,77.52169426
GDHqsKikJDPZwe,13.08218115,77.65866896
GDHqsgKikJDPZwe,13.08164104,77.65849536
IkFngllvyzxoLUA,12.95802708,77.74212651
VoCxSpiYztZVzeu,12.94673856,77.45918265
TPwdCRMnTGWFBBV,13.00141394,77.49880359
CfGJPYoDMmdVVia,13.0175218,77.45319328
RsTnUBWiOzIAMBpi,13.08883828,77.70603322
RsTnUBWiOzIAMBp,13.08847205,77.70599867
VHwhUuOfhPJuThm,12.92034566,77.45154443
tXjexnSvaqneYbw,12.85686666,77.70310413
MAgYtSLqWvrZIN,12.97195327,77.44874885
MAgYtSLhqWvrZIN,12.97265981,77.44968223
gHpLDcdfHAnfGUP,12.98526501,77.71935371
SbYjRdMvzXdLiYW,12.94014984,77.6969395
pMmwjdwaVRKmDUF,12.8978785,77.45728658
mqPWbcJNvlZGclw,12.95121523,77.5588254
XAiFecuFmGUiBl,13.09401299,77.6006784
XAiFecuFmeGUiBl,13.09475545,77.60159483
HaJbPuIsxPaQPyn,12.95916666,77.59751295
rlExGplxXsuMyHX,13.00487705,77.57513982
wJUxthsXwUtgXxL,12.97542752,77.6366222
EuMcjgJrZKGlPht,12.96886524,77.61248169
BNDYqsvdOALQbMa,13.0407223,77.44658645
tUoZsAfnUYUYCFO,13.02942261,77.50598894
gniStdymrjNTYJR,13.04370507,77.47850666
wSVyaaEmOvHzgizw,12.89162975,77.47526192
wSVyaaEmOvHzgiz,12.89080457,77.47586094
WnrTcYwNsiTUoYI,12.86593034,77.72462681
okFhfpjyEdAgIiK,13.01612875,77.48786168
UFEyjINFIHLLALcm,12.89011056,77.63614647
UFEyjINFIHLLALc,12.8904241,77.63537524
zcVXJPrUSuYUCiH,13.00771978,77.49538398
aIStmmlmthkHLJd,13.08540747,77.69657434
HjWsdeHoUnUWNnG,13.09684576,77.62920128
scrmsRxncsLIZFx,13.07341318,77.72577949
AdMcEgDxlxAuAOb,12.88925745,77.69830473
cQSpoLsUvNlLfcr,13.02559402,77.49764631
IEWGGGcCUHuxtoZ,12.98118727,77.66859496
UGPNOjNeNBmZaX,12.94672932,77.56529386
UGPNOjPNeNBmZaX,12.94733731,77.56609022
SpoJARtxXnuDUUb,12.89456101,77.50582337
oWarxqQjvtfCViP,13.02844557,77.45103664
MgTmVnMhXYYGKtv,12.89948476,77.45768357
KLFJrLXZNGvMiGW,12.99710676,77.61919794
LeTKLLASKfDcQLa,12.87388295,77.7166359
eMKlHdETHohleaN,12.96984751,77.46022323
mPDPLbMgKMiXCoF,13.00123199,77.46411998
QsfDvLYpRPbQbF,13.05092281,77.50078754
QstfDvLYpRPbQbF,13.05157889,77.50024707
JzRVeVsTdySPHRi,13.04290425,77.62027415
BGYjiMqRHvuUUqm,12.90095502,77.54465747
pQvakRcmZaWiQOG,12.86318004,77.70819492
pFZRtsEPPiGwdVe,12.86206066,77.61679378
bkByeiGDpFebLcV,12.98841818,77.48264403
VLbCetVpaWHQrH,12.86835474,77.71728113
VLbCetVpaWHQrHy,12.86782297,77.71797551
lgTyHhxQJHaNjou,13.05949527,77.68213818
xlOUePFomPuXngX,12.98239614,77.65559336
iOzSjNqvGjzmgfm,12.93874538,77.4515352
IzMBcXQEryBKQFP,13.05270967,77.65278618
dEwkBnlydmGxyJ,12.94110087,77.49436209
dMEwkBnlydmGxyJ,12.94077915,77.49436674
qGoGlQHbQqehwKB,12.91878439,77.62628691
TnumPktgHaZjVq,13.05433767,77.473202
TnpumPktgHaZjVq,13.05381709,77.47401497
VvtpAnJNWfdqteH,13.00499604,77.65068686
bYNwapIzryquHTV,13.05071387,77.59148606
PdUSVQPPSQXZRyn,12.96316305,77.60394062
lktgfttfCySMxNH,12.95029012,77.47229422
NuZAxhBqhEUnOGF,12.91959743,77.50935549
btAXFwUPOGnxKzQ,13.00755537,77.5414802
zSkLCDpFUFnxKP,13.03522995,77.7379308
vzSkLCDpFUFnxKP,13.03542294,77.73705669
pkeKRqXRKmIfsLx,12.99577885,77.58939996
zGvhEHTjdDcyyB,13.01060746,77.73765355
zGvhEHTjdDcyYyB,13.01114021,77.73864154
KWUSRUJkAPquOSV,13.0194381,77.63325611
tDKVyRnJmcQfDMu,13.01978301,77.44690113
jqVzfhXNBXoRCgH,13.09590157,77.65773638
DZUhojBePAHVmBw,12.99847566,77.73455548
NlTJhSUFhXpFPUc,12.97506714,77.6158499
hiuYGTuxcINJqxI,12.99884381,77.6115031
gchdcRLBoCsnGiA,12.93901604,77.5021767
ClpyuMxxYWoyyS,12.93550392,77.71327952
ClpyuMxxYWoyxyS,12.93637711,77.7131697
StZVLtCUuHPleCo,12.88459933,77.72743307
BeONVlVfvJLadkRs,12.93580794,77.52516617
BeONVlVfvJLadkR,12.9364525,77.52515461
mYiLwdVmxBLyiiW,13.05908013,77.52602889
fiHsmFpLVDLEbsk,13.0070516,77.67357079
pkluWBKBtymOwqq,12.87358404,77.53442916
uYOrfyLSfiLlvEC,12.98301598,77.47117798
WDlclfvhzoApNn,12.99398274,77.64602126
SWDlclfvhzoApNn,12.99299504,77.64561133
hrkzRNxhWnmxFTOv,12.87941615,77.60749334
hrkzRNxhWnmxFTO,12.87973631,77.60688704
FYmrgVMLcjooNwiD,13.03062938,77.66600441
FYmrgVMLcjooNwi,13.03144013,77.66585304
ZSOzBMeXQXiQflC,12.95887947,77.58636664
bdEOfDIdcDxMLVi,12.92600007,77.56116594
cawddqtQyOfhVlxP,13.01505283,77.5803673
cawddqtQyOfhVlx,13.01432805,77.58096815
HmeidRXtHIKEzo,13.08254835,77.62354084
HMmeidRXtHIKEzo,13.08220818,77.62281075
XEEUEvrXAxhWFhE,13.05563877,77.469302
bYhGMNsnYgyfnqF,13.08521074,77.71896305
entTbBqNUAuRHEe,12.9488857,77.47156702
GGTFqJkMUBxvevv,13.04902629,77.69004011
wCTehQiuwoFbRhi,13.07265504,77.5132968
stVdksUHeFRuyvc,12.89578507,77.6739285
WHrjxKyCqjnwJCrU,12.8830598,77.51585406
WHrjxKyCqjnwJCr,12.88364346,77.51624577
QGPMyHutAmrThfI,12.87990716,77.65116143
iEECptUHKooSFVo,12.94491511,77.54022628
aYKkRFKqDzsMsPz,12.97991557,77.64149706
oFmTsadJmrUVOFE,12.96842327,77.58727074
jkuFabMnQhDyqVH,13.0519601,77.54764886
yZBgAfPtbqsZOg,13.08713646,77.63238601
HyZBgAfPtbqsZOg,13.08624364,77.63155028
fWmssbKbcArJXqe,13.09091427,77.56520809
HizwZpHESYcAYSu,12.89996897,77.57167498
ASrXOQZcuqzmsor,13.0596436,77.68297325
JAUGjYbtJBuHLQZ,12.99302532,77.51207887
JRGZEYcRMAnoxfk,12.91369727,77.62516883
VBMmlIMmaSjTiQB,13.06384897,77.47957283
GQjrzupeBZbVeEM,13.07017983,77.66068684
SozhJPJOWcTJSCm,12.94262691,77.61625134
sgNpLRifcyLIyzX,13.07986791,77.73208481
dlNjPMefMrbEgpw,12.8777127,77.54467168
zPNVoYstzhGDVDm,13.03743249,77.64592625
KZNSrDApTzfosHn,13.07139569,77.53895238
HMqlgnCwVuTLfaS,12.89419828,77.61364568
rZWZlcYKlppxjWB,13.05340877,77.73217462
RBpuwZVGnUlihiF,12.90590612,77.74138899
BkiyLjsnYiGpjfr,12.88927218,77.65052488
NfkcLbbJEHmWmIQ,12.98048836,77.54386975
fGJDRyqvCmBgRat,12.96439124,77.50414399
qLggnCaBdAbLJzW,12.9817308,77.50447973
CPmIuVoWInYDiaz,13.07153532,77.6852858
biJvbjrDIXBeXkz,12.94548462,77.63870659
rVoZcNIDHSbOTMOL,12.91026538,77.53019043
rVoZcNIDHSbOTMO,12.91113955,77.53087237
bbcZbdWYubDoZRl,12.949884,77.54424561
MaMdPayvoJuqLZjN,13.01597099,77.45567247
MaMdPayvoJuqLZj,13.01586809,77.45473304
pQqnVDeblClBDYZ,12.90833609,77.60479266
XXCuXgtwOseqrwu,12.91578917,77.71362042
xylUxaijryShWay,12.9155768,77.55026696
yfyFhCqyaNoOjYse,12.97625899,77.49613609
yfyFhCqyaNoOjYs,12.97588681,77.49640119
RlLlSWgMbzlmSDV,13.08431174,77.61034393
qaVVIvvoBEYQQPg,12.96048629,77.67928653
TNltGCTJOuGkSbu,12.93457889,77.66355041
EgKDCCcjbkkadhj,13.07067252,77.67725365
ZePvycwglqSARDf,12.95435896,77.70219081
oSXidBUojCecqpz,13.02009877,77.66325557
xQYMTLmgvjxDJp,12.8942871,77.45202468
xQYMTLmsgvjxDJp,12.89376157,77.45179788
HgDthKNiluWVZFe,13.0261502,77.64880879
jdQsSpXvUbzpagR,12.99387198,77.73134102
mgLkHimFeAetxIK,12.90721217,77.70513607
CJkMegAhQHKamD,12.98119784,77.6091507
CJkMegBAhQHKamD,12.98084524,77.61011349
WZmyXibqKwqhOX,13.0612114,77.73770822
WZmyXibqKLwqhOX,13.06200721,77.73783184
IusBkgienkyoOXg,12.99208072,77.6624436
slkRrttFdcvitpV,13.04614287,77.48095502
KrMIUNqlPFNOMMu,12.99217011,77.65651259
pzGmYcBAFHLIJgcP,12.92748402,77.45757573
pzGmYcBAFHLIJgc,12.92772089,77.45804358
WYgyeRcdOlkHMLh,12.89792153,77.65104845
tPzZoptBZtflBzx,13.03994889,77.67032155
ESTIuQnNBLszshJ,12.92527653,77.54502329
dhCFBbaRCzznXRy,12.9113822,77.65021857
zEsplIwzQSvxLTj,12.85607195,77.61761573
FiCjqcJmFsPCKnC,13.00587815,77.4478116
sBjvdorHMTJRXc,13.05525825,77.58755581
sBjvdorHMTJRXcF,13.05454609,77.58659365
yZOjAWHlYyBVwa,12.95112843,77.73591878
wyZOjAWHlYyBVwa,12.95014393,77.73545303
fbUArVTSWEfTKUk,12.90460669,77.67939519
ugvedrziKaQKtRf,13.08554457,77.54448497
zijDLbtFHHcENMX,12.93336337,77.63971499
UNQrUHEwYLlXroR,12.92409165,77.70526494
KVmdHEcaKRCHOBq,12.86228591,77.45322997
ezKAwEsHdNjMSiL,12.99687978,77.73193206
JKCjLXHQpfKTgVl,13.07689298,77.65905844
NexRTMIeogtqmsE,12.95023213,77.54478668
mKIRblQwjCJzxur,12.95972236,77.49899393
kTWdDBIKWokghlh,12.97692522,77.65738928
KzIZjRqExodOLUqO,12.92017326,77.56709438
KzIZjRqExodOLUq,12.92113878,77.56648967
BMahUqvVwTWUWKzh,12.86896396,77.53380898
BMahUqvVwTWUWKz,12.86832598,77.53339114
dyQvAsHeNyQJIJR,12.88848349,77.61605939
lpAqwlrkOFzBHld,13.02134993,77.44566215
dGVBJsmclXiGMEu,12.95921924,77.71314939
rKesaEKNotkyKGo,12.96947983,77.6068719
ernxdXIebhuJZFr,12.98543088,77.59465776
lMeplmGULpkDVfn,12.88229601,77.70621596
SEfDpNVzeelNaGK,13.02648401,77.68788649
JPCeojTmWeRYWhJ,12.89559872,77.61167804
QUJaXWiBBKkgTpjN,12.94690208,77.64026762
QUJaXWiBBKkgTpj,12.94639485,77.64072053
lODmPlofpVmRXKW,12.85481374,77.47815773
iVYRcPiwuQOxSDy,12.97530332,77.48660499
wlOcuPoCEBWqJTi,12.93467237,77.48739121
bFlEZeGoOpaaVZe,12.97918342,77.67876433
JioXnSjdvZSuNZw,13.06681312,77.55291876
NFhmlzMwOOmoKWr,12.90936408,77.62114482
fQHbBeEdgvAUGt,12.92466095,77.51170724
fQHbBeEdzgvAUGt,12.92403652,77.51186235
sKoUkFSJBvTOFF,12.98758376,77.631071
sKoUkFOSJBvTOFF,12.98709065,77.63059368
ajKHCmqUMnxTxuU,12.9206774,77.57295102
IGuDNqmWuwXkaiP,13.03770761,77.67180916
rDrHuXoJgokHyef,12.91884447,77.64907661
KaZaSkRcMFaUdac,12.94817592,77.66824462
AROOoMEgTBWOHqq,12.86553885,77.64854955
DjuzDBuSZrBlQIV,12.92429877,77.47695724
MPwTlnvCWBXHIMn,13.00704997,77.70817789
uWmKXzOjlhZXQs,13.07332603,77.71456973
uWmxKXzOjlhZXQs,13.07390279,77.7144182
aPrKPjajvEjHVpH,13.06239876,77.70113037
OQQDyNRgYkjdRCc,13.04799811,77.46895464
hCEGvxQtzoBRfJy,13.05974395,77.54237896
dFpaEQKAdbzORYo,13.03051972,77.62704204
OghMBdFyVOEMjWB,13.04328095,77.57728997
TiAKWvRnPfqXeiV,12.95771781,77.62460588
nUljQbfjAxYjVaS,13.01827587,77.45966238
dmbOKpzOvFyVBpf,13.02902019,77.66735901
azBwqEmUHRaXmlg,13.00578733,77.6602836
OIThcSUUBtROOgi,13.07647886,77.59599746
bhGfIwOYRxSqpFu,12.88474934,77.47175297
iIyTLUkLoUjJrkn,12.99589198,77.45648221
ZbUWKcgpOnXJNZG,13.0637821,77.6456827
qsiZwgSltWyVxCU,13.03302774,77.5562074
SEmdmtsfazRMxuY,12.95045856,77.73843037
wePsMmkAslPYDiF,13.02146852,77.50652432
ZvXtrOSTssZOGYc,12.99689868,77.62644772
bIKFFsktXsvtfZe,12.9605781,77.62918321
joniUYecYnLiIeF,12.95008689,77.56196548
OrBLtDQNqSAQgsj,13.09051761,77.68894181
IzWfsMRDjvIripJ,12.88642291,77.63655077
EboyxXpTZOpoDM,12.95335875,77.62182321
EbroyxXpTZOpoDM,12.95430136,77.6227202
ZVjRqQJIJsxiDgYa,13.06717451,77.65580568
ZVjRqQJIJsxiDgY,13.06767843,77.65543848
WEpgaFCJZcfYBVq,12.87152478,77.45698992
EreLNZVJnYcrQdpI,12.99469459,77.61453471
EreLNZVJnYcrQdp,12.99388722,77.61444692
RNLOoxcwlwWVBwrd,13.02875068,77.47956746
RNLOoxcwlwWVBwr,13.02805131,77.47880378
cvzaHIoqndOJaOs,12.91290908,77.6161609
AIpoAPIPnVOnqaU,13.02212689,77.72212304
dYMasHbvvrlHiPX,13.03723547,77.44647335
iQRztfUxbzOqDyCe,13.07385292,77.69545854
iQRztfUxbzOqDyC,13.074676,77.69581037
pnzypKRxYXFiPo,13.06030722,77.54634123
pnzyjpKRxYXFiPo,13.06073361,77.54726898
cyDySGPcmWctjEum,12.89303034,77.50830892
cyDySGPcmWctjEu,12.89289055,77.50776494
JVqCmoJHUMdRDNw,12.85698481,77.66552682
KSpOVunhjKgWgzk,12.92653136,77.60467646
WBbgStWyoUrrJyW,13.07980491,77.65141881
PCsNPaZbEZbYQSK,13.06685269,77.49188921
QgYmKidEQgeYnQl,12.98180871,77.51781782
WxAVaSjJqPCsQWB,13.00264372,77.70272661
jkHGHYibXbEEOdC,13.0279521,77.47235982
vrwClAFlvHlDRAC,12.94523831,77.45767798
EtehKCYKecwZIAg,13.06307964,77.5739738
rPSFZJOJQcNSbWI,12.96699925,77.65064837
rsPpNzmUnBfAQyv,12.88747822,77.507431
pvfeEiKeUVMsvUy,13.09166701,77.45333645
yMMkCFYYnfPYlwA,12.94270651,77.64829146
YOgIfNOQRoBWUuk,12.93006847,77.53688331
nwZqsGvFZLHzUyI,13.06206622,77.67292416
qfZXNlVywsNzYUy,12.86949705,77.70062403
FXLwjTTJthJeNnhZ,13.06737631,77.71947658
FXLwjTTJthJeNnh,13.0681963,77.7185595
iOcgwiygwmcVAFb,12.88579104,77.57038508
UiQISjeckABfYnV,12.96652665,77.45183248
DfpEgvyWgxcxoYK,12.89115576,77.46815199
upzYzOEtWzMZecW,13.04813656,77.4988448
uoTvYStDGzvdYUD,12.85926289,77.67916593
ukaJVXDnUrGJfCA,13.0034057,77.6211411
YvqLKpKrigHjDKq,13.02000328,77.60916692
pEYUfGOqqHvxBfs,12.92814531,77.49018989
OccUKfpVtalbUfS,13.06900832,77.70436089
ukQyRgxhZoWdSvk,12.90097376,77.64878648
cBVimhYaKofrBpd,12.85836577,77.74032555
rAEldoCNXAUerJy,12.94475411,77.6898386
QWfoYYYeAzcHpWo,13.03707689,77.59266196
rFKvuZlySxEDHMTU,12.99600346,77.67367691
rFKvuZlySxEDHMT,12.99657713,77.67401741
GpxiPwRPYDbOMKQ,12.91900386,77.57962687
rEoobMxDZSNIAtb,13.06870541,77.67077522
DFAXlUxvCbKDIG,13.01717432,77.69427428
DFAXlUxvCboKDIG,13.01690249,77.69362059
SDSAMNjopIkHmAU,12.89005566,77.51166297
zYJKEjRbhmmqgMV,12.96169319,77.49660596
jBubjmrjXNkUlHP,12.92560112,77.52912788
vslHJTaRoVDTObJ,12.88820475,77.52628533
nOrHfcyrOnwjtDu,12.87000165,77.74041418
MmtOZMxNYbKdaib,12.94998929,77.66586743
jOhdhYCYkixZzYb,12.91004863,77.45815014
KEhlYHwWAZWToQa,13.05886531,77.47415382
TrGquzsIufZcvPe,13.03373036,77.56780312
eIZyxephZCDhkCz,12.88682257,77.47827693
mBBjjMtEXJVKVmN,13.05256478,77.5052147
vktwfkewUsUnbnYE,12.94507282,77.45581502
vktwfkewUsUnbnY,12.94416037,77.45632413
LrJaefZhWUYUkZl,12.87917036,77.50440503
jlCiGcNrmVTzmVG,13.03297292,77.59220812
gZwwdRAiLgGjls,13.03016002,77.63727035
gZwwdRAiLgGIjls,13.03024275,77.63780833
FlGZyVxARCtkSvj,13.0575444,77.58700866
mhPCNfxAdRPlApo,12.8764091,77.61345356
EIqhicWQRoKHDHO,13.03223006,77.67980523
kUEgdTTjvYeWUc,13.05558264,77.50539769
kUEgdTTjvYeWEUc,13.0562361,77.50571311
iZTjDIzKJBaFZEP,12.95594587,77.45782641
aJHSeWcNxREvyMj,12.92068918,77.47939595
hCjKyACKsTDzZmT,12.89523942,77.49867619
UmkLhudlSpyOAXS,13.03890999,77.63935488
GZKqcmlNEhjVevk,13.03048589,77.53318656
mKullfVAzlfcACl,13.05243697,77.60854145
EqsjbJgXfIodWDu,12.96311898,77.66463009
uCLlxfFDRUWfhTV,13.04873299,77.50952574
HJTdGhundxbBIzJ,13.05704741,77.62419983
MpYPDLXefWjRgNg,13.06912288,77.61690646
XQmRpOYxRPVLfGT,12.97356384,77.74283967
vCKouYquNHMnfqH,13.04795707,77.46885796
wrUrhRyPTSqYDXf,12.89588173,77.62984541
zQLUReczqMeFPgh,13.0376772,77.47018058
MBZsjzbDCyfDdl,12.86983457,77.68382109
MBZsjzbDCyfDudl,12.8695628,77.68456396
gTGqiLsAdIJURXf,12.85265597,77.73979629
MLamDcEcnmmznQVo,13.00614445,77.53185571
MLamDcEcnmmznQV,13.00581124,77.5310275
hHdVJCBGkkOaQqz,12.96799741,77.73540478
JzjUhSIdtutEOAH,12.88729114,77.66428581
YUYkJqGzpKDQGFm,12.85611847,77.71045759
FcEawbpurFLTwFH,12.97243,77.71305455
XaYebERDPYhSoKF,12.86691871,77.5620291
IdJOrEeyqmHkoGR,13.05509538,77.45584869
UqTpRGqjSWCKbIj,12.90970929,77.54178805
YahiEJxVKVcBmJh,12.85391029,77.45006146
THsHFhsOSApDlvX,13.0834935,77.65180342
NfXAIkSLNtkgzVt,12.94340205,77.71339195
LCYxOuZwoYgSRvD,13.05579869,77.56308071
zzAZHiXWZgqrZshj,13.02769007,77.6230289
zzAZHiXWZgqrZsh,13.02764088,77.62253156
cfxpBFWzcYIKVNe,12.86198867,77.4845705
YDpsurqPFDgPCid,12.92308869,77.60588952
duIZaJuaalOEqRY,12.90997052,77.6889635
AsDsQPJrXDfWWVt,12.8835441,77.64459517
KexEyzHhVNhyQfn,12.95848484,77.71848997
YpCbyratgtVHaQF,12.96933545,77.57135269
WzWxowilvbqYZNB,12.90559667,77.67738772
ZjIDWnyluBOhBDS,12.95408979,77.69906971
XveUtzermbPSFMy,13.07192475,77.66905597
jgbteeAmwxztfcm,13.05454356,77.58382698
GTEzXpGAfaoICeR,12.89798703,77.56543106
GBIvjnnKxpheFNS,12.99082273,77.45607663
CXziyjnDtNIsjD,12.99277939,77.45409376
CXziyjnyDtNIsjD,12.99204654,77.45419765
rpvqBHvhCYaeTNv,12.92851114,77.60944351
DSLzJgLpnLvCxgK,13.05367758,77.56648806
vOomTaIvjZqnHqj,12.97924203,77.57820819
fHhGIqotFnOUWfh,13.01696993,77.73273871
BPCvLOIYgtFwEt,13.07422311,77.53273819
BPCvLOoIYgtFwEt,13.07324746,77.53355807
GEkhcoKBVhjrmAc,13.05735547,77.66822109
zfMfHsGBVnlxYFM,12.92575046,77.45990236
npkwuxrxGSTrFyf,12.89417694,77.69991199
mmnQArVArUdyYSy,13.03802969,77.66738302
rYrtwYZJAUHqQRq,12.87032154,77.5170763
sVYjwGHJoBCmdv,12.85328871,77.61945106
sVYjLwGHJoBCmdv,12.85276915,77.61893318
vyqtXEQdEaxAPIC,13.05311831,77.62152251
qbhTRVyEAoPcFkt,12.9413717,77.45957582
YQgrPGgIpamFBB,13.03190921,77.59838896
YQgrPGgIpamFBCB,13.03195761,77.59820625
ROOEPRfqNyqqoxp,13.08053667,77.59708461
xMfoTXlCSYAMNtIG,12.86247125,77.44996536
xMfoTXlCSYAMNtI,12.8622228,77.44897146
kEIgiWpxryNcYoc,12.91366505,77.71600837
mMNzLUBesILtwhZ,13.05205235,77.46260075
iyxMGoZbeJNwkY,13.00416221,77.72840601
iyxOMGoZbeJNwkY,13.00500945,77.72759244
kotXhZbQHqCyqkt,12.96107922,77.73703203
iJOlDFwzJZwRrvi,13.06201585,77.72857031
hRyPeEAjGbgCWUk,12.90995168,77.54683428
waNnDxFTjGqlPFn,12.91197115,77.67897467
MZlxWTCeFzrKpHI,12.99030853,77.53145182
uydvDHgmuIXcPo,12.94376064,77.51680585
uydvADHgmuIXcPo,12.94444739,77.51739037
vluhvBNKWuDIFBg,12.89094378,77.47617399
XSguXUWgaBaoqEN,12.9141604,77.71535658
jpcnafMdDVEwEmYk,12.86309194,77.54218821
jpcnafMdDVEwEmY,12.86214709,77.5426704
DycwDgOtvOtQXw,12.94636492,77.73841121
DycwDgOtvOtQXwM,12.94549786,77.73817085
oIJiJDqmYnIPqha,13.07682312,77.58341714
ZmKlsuIjLasqBb,12.91780724,77.60221137
ZmKlsuIjjLasqBb,12.91721735,77.60291373
QiThPbaLXKuiuJw,12.94356803,77.67527717
eByQslQONUFpuLsd,13.03463122,77.56198617
eByQslQONUFpuLs,13.03464038,77.5629269
DJknaqZozJxNSYK,12.97552969,77.59169325
sqiHmVZqxlpuBDW,13.02401641,77.45130037
WTGQmplvWMfGGaDe,12.96394406,77.63282663
WTGQmplvWMfGGaD,12.96489437,77.63223709
uCidzSIiHHjghey,12.92929807,77.58267091
qVdtACmMDrncYuj,13.00426148,77.60871474
neVnUJbEOrioDSN,13.04950474,77.72613569
NcnlQWCsgwrsjPO,12.95280855,77.4548595
wkfNCCbrKsjmnDx,13.06419773,77.7343355
dVcbptFJKPqjuEs,12.88827817,77.51467842
kgyhvudoqPYkykMy,12.92589602,77.56365687
kgyhvudoqPYkykM,12.92517635,77.56285041
PArBrSplCOZaslVy,13.00620342,77.68444484
PArBrSplCOZaslV,13.00679024,77.68517895
uRfvHSIdTdoKsO,13.03836815,77.51195976
uRfvHSIdTdoKtsO,13.03789126,77.51293601
RKMKOdLvSyKJxXF,13.04659169,77.60370984
ALsbxaLroSpohVX,12.88302822,77.53127301
XYUBrqyXKXXIVim,12.92202313,77.56122323
zyROgKTNQZxxyJO,12.86529852,77.53298624
RJwOurMvKiUfmzc,12.98982031,77.71917909
cLwmefXTDjgMWkD,12.88846143,77.55658061
TUsHNXHCxwlZXJj,12.91721443,77.63727083
CvasHarxUeekLLUF,12.85612459,77.49248109
CvasHarxUeekLLU,12.85606554,77.49262795
CtGMWSkNdpOPJsF,13.00417463,77.53232793
EvXXvhlykbAFNeP,12.97180504,77.61072765
QHIvcnQGEJSbToq,13.03339657,77.46144084
hHpIPyBlUdJvHFg,12.97711236,77.71242781
XGDrDAxhpVrVCTq,12.86547914,77.71674376
yjxMaJzGsFPVhPJ,12.89081247,77.50422538
LMgUOuvOSCnsTtg,13.00819097,77.46711932
KctXuXGgxnJznCp,12.98712593,77.61360322
xHVtOAaesljTTVL,13.09033336,77.47501212
pGCdkDnxYREKucy,12.95133479,77.68638799
QilLDONOSpYGxo,12.88596672,77.5733811
QilLDwONOSpYGxo,12.88520262,77.57407494
YANXcgoFdpzIrnJ,12.93948448,77.46918113
teeYyeuZUkKiFZg,13.09386406,77.59721248
aomHwhEhRjLOTzO,13.00595812,77.60731677
carhEPHaAXipmKE,12.90977358,77.53437115
nZkMfxxbKFgzscr,13.08808371,77.4885215
IPkZYHdIDPqSTJG,13.07023237,77.70820858
pKpfZQVDIRyehFC,13.04573802,77.46938415
LrMjANdJtsqcagq,13.09521327,77.64274987
gXYkwyzcHXXRpqU,12.90736949,77.57612171
IYWLuHlAGNsriaf,13.00390566,77.71989839
AEVEBEadezQuNQK,12.94902226,77.53426473
qnGBdpGskKYIII,13.09238662,77.56675017
mqnGBdpGskKYIII,13.09155877,77.56752254
kFXpdipzxuvNurv,12.99959833,77.72205309
NwtReLPdHdBruzh,12.88230473,77.48082683
AXJigmxoDTwLiRN,12.97598798,77.63674264
OiWIOeWmTIsAHiX,12.90482164,77.67540357
kNkbXzwUEWfcYJs,12.97411655,77.49651648
MiLkCmXFpMKGIZb,13.03096722,77.55437097
djVufxupfDyWDlC,13.02221244,77.64289335
QYvRKaZXdjRZRCj,12.97220058,77.58366809
lmOkamFyhQcYaub,12.86219313,77.50504664
OKdBfMPZcWFdpJM,12.92447999,77.46129968
CqDevRevsqnVLRm,12.93902666,77.51462662
kttBWTRqgEdWjSU,12.90956372,77.54348278
otvBIImHGnSaNTV,12.89093909,77.50536765
GMNkWgnFZTemcjh,13.07583408,77.45554503
fexVVpRJFqtljey,12.86246074,77.47145316
DBluGvzpRKGANa,12.88974264,77.52607173
DBluGvzpRKGAANa,12.88954962,77.52674985
njkDvOOkFVEDPf,12.89405468,77.47645123
njkDcvOOkFVEDPf,12.89308076,77.47667137
CuzrFvKRcHYgCUe,12.9676702,77.44773314
TkTOIUmZvrJqXtC,13.01707168,77.70530215
ocvbBGNqhXMboLo,12.94752014,77.68572277
cmTgLlwpoGaWOM,13.080302,77.62004624
cmTgLlwpoGaWOMu,13.08085146,77.62019301
keiEJSqEtgAoXXl,13.05624215,77.51557785
LxNisbMVOIrBuSI,13.09384088,77.486774
jnrsXoLXguPQwMiX,12.86789845,77.49957473
jnrsXoLXguPQwMi,12.86797145,77.50041179
IszXzHyegIxMbRU,12.85520191,77.58563466
pcThJPcZijmDqeR,13.04149808,77.5637014
MDOtYEcGKStAwFA,12.90766494,77.48229801
TyUJZKPcuKFdjVz,12.87106052,77.53600225
vyVpNrtpPejkiw,12.85961337,77.69726438
vyVpNrtpPejkCiw,12.86046889,77.69751239
LaDTLSQaMyNhtRz,12.85636696,77.52551382
CyvakKdHiquOdci,13.08905262,77.47228421
ocGteFYViWDPxTl,13.02294712,77.72163763
feCArDaQgOQhWAcW,13.08786544,77.63312466
feCArDaQgOQhWAc,13.08726882,77.63393655
qijrrEnZsHtitW,13.04156687,77.66845587
qijrrEnZsHtiftW,13.0422764,77.66860791
XtHjfjqJPIrPiMdL,13.02426153,77.52509437
XtHjfjqJPIrPiMd,13.02386727,77.52453572
TwSZNJTwEaDUrwt,13.00534972,77.4821347
BwLeqGBstSgyBfV,12.99132717,77.57644087
jULWmZJGrVoFsYK,12.97311414,77.50501673
WJIlpVNJXNzhETAK,12.985971,77.57964723
WJIlpVNJXNzhETA,12.98567263,77.58040684
MGcZSGQKaNAlViV,12.91441911,77.66734482
uJtwZmfcTWIJhNxR,12.94094085,77.5165473
uJtwZmfcTWIJhNx,12.94132976,77.51555089
wfgVQTxgnPDqAuo,12.91853043,77.49502197
uubBQlvOuJnNCCa,12.93526596,77.63471922
rrZTyYXZUCngJa,13.07176878,77.58714564
rrZSTyYXZUCngJa,13.07240097,77.5865104
psaMxKyAaEbYXho,13.08136577,77.63993191
xvrsryvImrWAzcO,13.06626186,77.64138488
iGYoOmmvEoSjMnY,12.86895927,77.70794848
VFXpIAoPuKRtchh,12.99390334,77.48471351
CSWKNaAtkounsNZ,12.88026346,77.49658884
zpwQYvVpAzxQrkB,12.94429828,77.72704362
QEWfIaWsBvQLNNe,12.88225782,77.44712938
FvRnbdSjDRAHEnNV,13.01039998,77.70705623
FvRnbdSjDRAHEnN,13.0097669,77.70712812
pHKdxHWFmhceHfm,13.0890565,77.56536658
UWYEuxhUtAeiyuL,12.95117126,77.49778693
MTfiDElkELICgre,12.97871084,77.66281269
ogjGyDgKvBQIaH,12.9244311,77.65946943
ogjGIyDgKvBQIaH,12.92348148,77.66029698
vTfnQfBIyRWikDu,13.04098365,77.5870709
wrtgPgsXkJsDQyH,12.91994187,77.59261508
NBmqLtJLRYZPxZ,13.04629994,77.65465083
NBmqLtJLRYPZPxZ,13.04723158,77.65383786
JJNshwIJHALCRpFm,13.0655591,77.51868389
JJNshwIJHALCRpF,13.06489222,77.5179809
XNBcXXwJAbOjtRY,13.09387765,77.69011414
wNGsAFHLMNaNfnl,13.08911394,77.72839057
FBfBwaafkuffiCs,12.97512515,77.49514973
iYCBGsYtOKMfjDj,12.95941901,77.45354309
IZdfrhErNWpSft,13.07830537,77.70380309
IZdfrhErNNWpSft,13.07848184,77.70473191
FKUofQGBwwXOOyo,13.00368324,77.53928516
tlxHScmYJqmuCjk,13.00742212,77.58157621
zQFScCzjsxoMNOZ,12.95836465,77.60645604
fZrMOBkiAwlssX,13.09044276,77.68110456
fTZrMOBkiAwlssX,13.08986088,77.68092081
RtljuOihHTJtMSux,12.88155109,77.74011787
RtljuOihHTJtMSu,12.88178983,77.73934354
fYDVNKtzexxVKF,12.92620894,77.56263335
fYDVNKtzeqxxVKF,12.92590149,77.56350678
opnLYhvWaUYfjxE,12.90360825,77.72470489
qlnnQITriAsMRb,13.01880779,77.61177419
qlnnQITriAsxMRb,13.01843888,77.61191534
dVXsOKGthZBBwlC,13.01638206,77.49489002
yAvAUOHoKFGryZtE,13.03394293,77.49564615
yAvAUOHoKFGryZt,13.03341112,77.49606246
qxYnAgMafGTNRYl,12.87433962,77.64893125
seWSXflLGNWsdMp,13.08104276,77.68140302
vzVRcZdCrPDnLzi,13.00552392,77.63750329
vHDkTPVgvFYfdDh,13.02810074,77.49465713
pdIHlBzTSqhIrHz,12.95019107,77.64406581
qJgdiSonqINvSBC,12.96953888,77.66039894
liVgDdPwILlfqA,12.86343232,77.69371885
liVgDdPjwILlfqA,12.8635631,77.69382014
dbxUXDFzfRiWZqd,12.90540571,77.53962577
oNEllIbKKJhLDUt,12.97397737,77.63123417
AujTHgBJRxmURzQ,13.03509438,77.54192556
MpfHvCQNCyXxJAV,12.87585837,77.45003754
RyRrclnxuaZKeyA,13.07622485,77.48610306
rxFcrbLdHyFUJxT,13.0101212,77.68656968
aGjzCaNzYeiGXBG,12.89228745,77.66440559
mivFrxfwXvGPpSr,13.02717201,77.5834668
iLFourKqGPjFkxq,12.91405765,77.57011184
caGHnDgCvuLFgte,13.06016837,77.46817052
sbamAEjseZJYrZT,12.96205243,77.70342853
IINowRLwjqSAJwI,12.96327045,77.57126331
OgdWhDHIgocvjqw,12.8625888,77.52106715
ipyAHSpEVyMzUga,12.98293972,77.55629584
KKDLsDupKDPmBQn,12.92802134,77.63664556
bHqIFuWvcnceHJt,12.92218774,77.48382177
FHNLwsoQmdrUGZz,12.87989132,77.50664512
wLZNOpTtSAzBmtx,12.88140768,77.6190541
pqOaUODaIhKLziz,12.88035645,77.54247035
ibRBmXvrFvjSXYR,13.05170942,77.58700236
mknuYsVijDSdjOt,12.86262299,77.57252122
BkRQwZBuKlVtdwA,13.01131058,77.66173734
NzdLnkKuFHTDygm,12.89922712,77.73191934
pcKcYdNgatwVauo,12.98613473,77.53784724
QgtVgbluAJVoNXU,13.04995884,77.46192667
XWzaYrDIRjIAXxdx,12.97081832,77.47280916
XWzaYrDIRjIAXxd,12.97173354,77.47354303
lCrNdjlQBXVTRpt,12.97455757,77.52076184
lvehirmgoHknWog,12.9343499,77.67022123
wfMyTPJSVZSJErM,13.04713355,77.70642271
wmeUKMHQWRjIJqE,12.94482607,77.66511774
atYYaHPqknvZbfL,13.05644549,77.62112314
SJoVpQIiZMyswhY,13.03986257,77.59115979
HJRwOAWcnaPlUBN,12.93447808,77.61261791
wWzeVSZKkMUQLte,12.95966677,77.73087807
QlKpsIBUtzszxmU,12.98087871,77.52791645
VdBMbBppBzcdpxw,13.04523649,77.6078627
BsuiulUtpMBLZzd,13.06638677,77.65269388
mOFGTmAWbWZJjOMo,13.01632131,77.70862165
mOFGTmAWbWZJjOM,13.01663071,77.70848643
kVVDakfaMJeQdqx,12.87920021,77.59681398
HsLibjUuWzvMZhL,13.01674958,77.67369229
aIWwUfwfNDkgPJZ,12.8730954,77.48188943
fOhePaukbxmvlV,13.06206589,77.62212875
fOhePaukbxmvalV,13.06279262,77.62156048
GACQbyLtqIMsuGb,12.9951747,77.6514482
dtULhLrHRZTDxku,12.8887714,77.65088486
SoKIwpGjBBMOnJZ,13.09113884,77.64621617
YWQVSvdzuDRJhwH,12.98417166,77.52728624
vMTuhgGqpPlYyrB,13.08977209,77.7171993
gaSdWgJMfuncIYL,12.95261279,77.57517171
glRDPtmvqtKFGWj,12.90341617,77.54140594
IPxDidhlsflEMEf,13.06434333,77.5433664
lDovyiYVoktHLuz,12.89720668,77.51295703
nCpyXXqQdLjVazx,12.89249263,77.64647555
MlJoTbjQeLBXeSo,13.09450463,77.47199285
nXtjdWuZZVyIyew,13.04874685,77.53741555
hlGaBlmvabhTsIN,12.89559631,77.59776885
cZWGoeQAYOeFIzh,12.86236024,77.52785074
ELBmUcPQsvXeHsFr,12.91367037,77.55757868
ELBmUcPQsvXeHsF,12.91404182,77.55671099
MELBmldvkZpFvgC,13.04126014,77.51751517
QJAEkNvLwunGSje,12.98272696,77.69302237
WbTvWEsKTezXEGT,13.08262886,77.48517564
rUsdjlLVLnnmTtv,12.88023751,77.55304187
zFRmOmFhYJqBOSO,13.0153027,77.68835316
AOpSKqxMkwNRHnq,13.03461953,77.61712157
owzZHwAXhfAUoq,12.93417597,77.55452135
owzZHwAXhfAIUoq,12.93410231,77.55523835
pUICcjDjClGXmlD,12.97766476,77.68733637
LaqwRAcFvbeitwD,13.06993321,77.6144121
tbHKteOjijbwQaP,12.87307064,77.61640422
tiNSgbaNritjZKI,12.8672269,77.73852871
IMfLwsGZTvbpzIM,12.89724764,77.47850825
mwfEimYrjjFUnrCM,12.92435937,77.56525236
mwfEimYrjjFUnrC,12.92529514,77.56489584
NqMHTYGfSzeWiAC,12.8655888,77.64981254
qpGYgbxZxJHQeVHn,12.98556058,77.70637419
qpGYgbxZxJHQeVH,12.98537208,77.70731478
nNFVRaYEUNCtVZR,13.09496197,77.61079442
ckqNFbpANcAGqN,12.89634278,77.620437
ckqNFbpANcAGqNN,12.89566313,77.61973541
ZfMqfkXgvUmBcmS,13.01208458,77.47820405
AyqvsNQBweREMbk,13.01500795,77.53963399
SLLAezdsiSkYRpH,12.97624618,77.56762709
MaGBgIWhoMdgJKy,12.96453691,77.55385483
remEJDtsOcSXtbj,12.93179387,77.46797691
tNMXmoEVjznDNMT,13.03943849,77.74160777
pYHsbNyNNVkZjswG,13.08187662,77.62598088
pYHsbNyNNVkZjsw,13.08265685,77.62518986
ekHCSumrzmqPiLh,13.01583689,77.59859146
rYYDqtdquARemBN,12.91130283,77.70856633
RdrhmizCjLMqObw,13.06159684,77.63616708
HFQUZcaVmPcjOWI,12.91357647,77.59247543
fYLHzRfSbMlZRWGW,12.97482049,77.54908878
fYLHzRfSbMlZRWG,12.97546128,77.54942055
kSUxsdoQdNsebcj,12.97689154,77.51421658
cxkWJMbAVGMGFcJ,12.87346904,77.62786304
DRlqmruSxkbnnpB,13.0306354,77.6328028
JAViYnIQAIashmv,13.04234041,77.61380775
GieWqWNJHzBqfSw,13.03685241,77.63316822
TYzmDDhpDbwYNIK,12.85396778,77.67402749
clFwJfVwxXetcpSL,13.01285457,77.58883939
clFwJfVwxXetcpS,13.01376527,77.58936795
naHzCuCgJQHZFMU,12.93856652,77.45626045
wNQroqHYychZXXe,13.01863995,77.52288869
arIFqxHshypMBRU,12.8713039,77.55410403
WSGoBanBVmbytH,12.85343128,77.5637317
dWSGoBanBVmbytH,12.85408037,77.56310769
vlEIxKYnXYnQbBA,12.86459777,77.59887476
fltfPjHdtFXvtSO,12.90120249,77.72561497
PvlzFQaBoiHOVkQ,13.0633179,77.51512657
iSuuwoIEoZkKhBj,13.06138482,77.72887321
xIgIXqGELIuGrRWs,13.04472989,77.7035173
xIgIXqGELIuGrRW,13.04553429,77.70334057
QoAuWmrLoborEdV,13.08264549,77.69926872
lTouvVhoVZjEoZF,12.97184219,77.5398215
CHJOkbwaBtKPwP,13.09240148,77.67373824
CHJOkbwaBtKPwJP,13.09227105,77.67380175
icLQWopCTvfXQMb,13.04320112,77.65578988
YRwTJESCWgqmXYK,12.98382027,77.70447326
RsgDoQfQufhYdUn,13.06631466,77.73750131
ctaAcAvAoDZhWIkE,12.87390573,77.52683851
ctaAcAvAoDZhWIk,12.87360425,77.52633568
wItmRXoIjDMfTQy,13.06640372,77.74024295
EyMiMtovaVkYxnL,12.91113381,77.62742504
XfeRwrfdBaDUye,13.0410626,77.4877867
XfeZRwrfdBaDUye,13.04169943,77.48752393
FUXMUCGDqWUPCVD,13.04859866,77.51884005
yVrJhNhGYBsGMffI,12.94442118,77.59784625
yVrJhNhGYBsGMff,12.94343442,77.5974887
jPUpMzaKfhljfHD,12.98919782,77.52799959
XKEJwzmfnjtGCnk,12.90673647,77.64897029
MAGSZNQmbExFoxD,13.09233613,77.47318787
rSPfmWfehRChodv,13.0076185,77.56232549
UxLpnSZLGTvDVbu,12.93930547,77.47713852
CIvnSJTeuKSzfmY,12.93563583,77.61844098
HMYLAZBHJSaJkAzy,12.90547389,77.51054321
HMYLAZBHJSaJkAz,12.90492382,77.51000862
MRKsLpJJAJgOKgZ,12.97151994,77.52101063
SaBrKLDczUSXtbR,13.05021977,77.55793652
OeMMFEEAZVhoNfv,12.94629658,77.5304575
BnHxVfGkkrGbEuI,12.90540131,77.51123257
qoYFhAIyYZGasaS,12.9487285,77.61897903
DsgeBvIHCugrtBB,12.86893836,77.48357226
aNveGEkgTFiCoW,13.04687956,77.62575949
aNveGEkggTFiCoW,13.04731419,77.62632225
XRssvTJNONVdnOF,13.09589017,77.51818807
uBhXXTpeFhemgJn,13.08649053,77.64534407
kATRtMlASlKWsVN,12.95398056,77.52883441
mOJrvUwSuXWSjm,12.90598657,77.62405006
mOJrvUwSuXWSjml,12.90683462,77.62309193
TQAcZRTmjsglhlZ,12.92824214,77.5251304
vxTucMyMjprivJd,12.92390402,77.53461241
dKlkuIbivIZJYs,12.94277094,77.70650275
dKlkbuIbivIZJYs,12.9419634,77.70665978
tmdQYfkoCkUwtH,12.88678809,77.5563889
tmdQYefkoCkUwtH,12.88581008,77.55736278
cMpuWdylDTfbiGk,13.00942925,77.74244201
LwzrqDMObCTMwVb,13.00070667,77.58214495
LDYXCgtzRAQIzcD,12.90205254,77.52676936
BQQivUxsayFaILr,12.88647117,77.72029621
GSFXWifSdMjcCPG,12.91930235,77.72412179
lKiFroTfCBpVPaL,13.01224466,77.4809101
XAPUkTceIMopStX,12.97401064,77.72822471
sVGcuXHDuYcqeWa,12.86264787,77.68579534
ABHTjTePdqmXxgd,12.93106922,77.67881773
TTUagRwfEqSiPaz,13.02091133,77.60864026
xzkDDTtHFPSFuZ,12.85301216,77.47913852
xzkDDTtHsFPSFuZ,12.85340052,77.48001735
OwffGdDPGFlbwPa,13.00293026,77.60934499
tIqXHVYklLepRqK,13.05137992,77.46200389
HmlhiDqNAFnHExl,13.0808542,77.71994543
XwMHRErZZZFyapte,12.87672228,77.64843261
XwMHRErZZZFyapt,12.87730575,77.6475893
unWMuftCLZrbDIjC,12.94286288,77.68652674
unWMuftCLZrbDIj,12.94249775,77.68601818
pfInwqMRmpHUmAX,12.94631981,77.70175373
RrnfTHAHErAReVg,13.04586885,77.57073446
oTrQwuSUZwFFvSr,13.01749057,77.55672009
xklVXWcKbhaaEE,12.9925926,77.72337239
xklVXXWcKbhaaEE,12.99338422,77.72339569
DcSFTtyXdROcnuW,13.05667447,77.72578763
VUzxyYZcvGeDnRJx,12.85383715,77.56989731
VUzxyYZcvGeDnRJ,12.8532448,77.57048702
wJGxwEQQRtyZDzF,12.90345636,77.67659704
jVZfUUQMywOoFfqa,13.0663643,77.50363964
jVZfUUQMywOoFfq,13.06725417,77.50318205
merBQUqrXCCETMO,13.02633399,77.64686811
OXLdXMtwmrzNPGr,12.9919231,77.65215634
IgxUmXGYlbrFIZh,13.08343358,77.56401149
AvPzxwohGtkHOKa,13.0388914,77.66006212
McnhOmPKkcpfxQZ,12.98027245,77.63537422
KVIwxQihYfyjbWFe,12.86958639,77.688249
KVIwxQihYfyjbWF,12.87037068,77.68746861
OygWIJqTdbVujUx,13.03285386,77.52639905
SLyncMQIXbohJDt,13.0036381,77.64324733
MrbuQzEmVOkPohy,13.08052876,77.70018364
kVASDrkrqKKaPVsz,12.85531075,77.73633137
kVASDrkrqKKaPVs,12.85453105,77.73664587
PDeSLizxoyWFrRl,12.95010947,77.63988286
ZXhAGGymvURdSSC,13.03851508,77.66156966
mDtVRYNvKTjalBc,12.9291684,77.59799428
pXXhfnPiOqeXLKSD,13.08402654,77.52770371
pXXhfnPiOqeXLKS,13.08442861,77.52779785
iSGyejlKlbIcQCGC,12.93804075,77.47136668
iSGyejlKlbIcQCG,12.93775242,77.47054625
LAkmZPhTXTkkhDy,12.98775101,77.66689815
sQFaOtGyyAvndmcG,12.98612049,77.49710327
sQFaOtGyyAvndmc,12.98644219,77.49769718
ICkQHJqJVmcjKgQ,13.04762977,77.65008608
tYTEYJAqheMdLlG,12.87655653,77.70804614
eQAUKncoadkvWIz,12.98487096,77.571463
luVnfmsQqxZPGbJ,12.93601005,77.46209129
CGreXrUkFCYqYzP,12.94711674,77.53110505
QWJtyfgJBCvRsgd,12.93900623,77.55969345
JNEYoyCDIguMppX,13.04769826,77.493678
zJqNFxYWlHkwvHV,12.90384452,77.48127294
MiPXDjcZAsBVlsb,12.98982531,77.73513728
MOUCvZGNAHNgBqs,13.02849897,77.66759024
VrFIGELIxJNESXb,12.88184126,77.53779804
IAzoNdTCHBJKtWB,12.87459249,77.56962422
FlqHbEsGkIjaatM,13.01536562,77.71607266
zuxVswcYBjBerVB,12.96568371,77.57089867
vCNYqzCzBqBPNZD,12.96174635,77.51068344
fQyYUcoTdZNjAuE,12.99533433,77.59839127
vwJbkhzZFMXpzei,13.09564228,77.46703838
PvRmwZlGvuLnYwn,13.07815601,77.63977213
KVzwiybwYWtIqjo,12.95997665,77.62096279
ejOGUdbisiIMQJn,12.88160727,77.61113454
CSTMXQFFKdIGOAu,13.0260732,77.47407947
lPuKoBEBYCOuGvW,12.95509042,77.63191492
aZzNQClzEVrNMso,12.88848352,77.45569064
gNIjPCwXZFTINtr,12.93787069,77.49710209
PpNMDXPYSjiaLal,12.98450075,77.61455516
HSmKclLbllfutzO,12.91671803,77.68066526
wlyNEMLFHYLzVKV,13.03353778,77.49158248
WtjvQpOvarhdlEv,12.85414564,77.73555822
jRypCuuvMPeEyHr,12.96364375,77.5675677
buOtthnxWyasdEO,12.86960738,77.55791528
FRZvUiMunhzmsT,13.06702556,77.67680626
FRZvUiMunhNzmsT,13.06760659,77.67719314
cnnzUAlEXxiPBUt,13.01462872,77.65446331
UzjorowQhcQgsGg,13.02858471,77.67434756
xieGMXkfoZNOyLO,12.93937618,77.60700734
spYKaOlOSjFCNkW,13.00640767,77.51573385
UIzmpuTVabDgBGj,12.94545608,77.54810146
JgMKAZfTeEWpSJd,12.87960924,77.52898022
UaUMCnNDRgfbbHP,12.96303392,77.61859363
uQRTxCiyCvbSqAY,12.91199223,77.65515408
eAvNYSMgNrMpzJd,12.95892357,77.55719673
MkgvPaTwaARQHhz,12.96380325,77.48522642
hqjnjHMJqjRHlyDx,13.08364576,77.66445824
hqjnjHMJqjRHlyD,13.08339261,77.66449739
iCCUbAEXgUXIsFd,12.85878203,77.73026571
DIYvHorePhnTmQv,12.897576,77.48061053
OoBwtqhyMphaUyC,12.98922673,77.47136927
hywDOclPgxAZyp,12.91283029,77.4799605
hywDOcQlPgxAZyp,12.9121843,77.47964348
CQXsbjdUgtSgqmA,13.08494587,77.44643967
JOotVLNaqhPENct,13.06404304,77.70466125
QSymwkLNimOQAVR,12.99286214,77.55970403
NRhutnrWdTuSqb,12.86606451,77.71240639
NRhutndrWdTuSqb,12.86506792,77.71171244
WukrcIHTjtDwLLWc,12.8645087,77.56604411
WukrcIHTjtDwLLW,12.86488641,77.56614374
ixwctETBteWGJxG,12.88659422,77.60581188
gowXmSTeGmggcciU,13.09623624,77.54867394
gowXmSTeGmggcci,13.09677915,77.54904042
UhPkWXrwxFUBFNe,12.90108208,77.64076482
KJXngMufhGlEWgF,12.88391097,77.65044959
IJhoeBsmGOVNnMy,12.88541848,77.65901176
UTSuxQpnIXFjQqJR,12.93328891,77.56569017
UTSuxQpnIXFjQqJ,12.93382169,77.56609388
pecHZDRnRNMwtJg,12.92590718,77.45958629
pKTeuEckKjiuaLh,12.91282356,77.4536459
KUjVGsVRfBYNAsY,12.90421254,77.44513317
xCmxKRMdiwuIdPKo,13.01925478,77.46632092
xCmxKRMdiwuIdPK,13.01887548,77.46693112
geCotCCtgfKArBU,13.07482354,77.56867591
vzlzQxbgmpXxYpF,12.95795992,77.71277121
kJBvyJOEKQbIAlH,12.95803335,77.5928887
QogNXnBnZaavuCu,12.8805841,77.71410254
iIlWtgbnRVhzhe,12.93146155,77.50048357
iIlWtgrbnRVhzhe,12.93164841,77.50119869
GkXlryoGQCumLGN,13.00314928,77.7304111
LJNjXfcUjPBAqFi,13.02744669,77.52527997
oeNmRLtuoIlyojbt,12.91429119,77.58878787
oeNmRLtuoIlyojb,12.91335743,77.58882941
vKQewmkNAcNspZd,12.89376315,77.45124416
MqMjPlldAwgwzRx,13.00763023,77.65924793
jzYpHkBQJuaTHxF,12.93899917,77.59118123
NFHRcvpFwAFCVxR,12.86509537,77.49082161
FQlhprXyndbNMjV,12.88085596,77.5686194
tkGcZBSQHxGxhnl,12.99938666,77.6115896
ZiapfhtRiLDEbFC,13.00590225,77.71608518
KncBGsaGGDuIKbdH,13.05290619,77.730474
KncBGsaGGDuIKbd,13.05223341,77.7304718
AEmGbgVwwcVDfNL,12.85875712,77.73282391
VNgQJMLcRHxNZUyF,13.08021933,77.45540996
VNgQJMLcRHxNZUy,13.08115796,77.45578243
qPIPjxRGSAygKzV,12.88982662,77.5657271
MEsIcdWgDqkrqPZ,13.08308751,77.70357201
DnmnFYihyHkqDsn,13.05332403,77.69833639
mjYCYoFXvBqBOGf,13.06659176,77.44838574
SkbIfqiVDSgeZwl,12.97620284,77.7127011
HUdUCYOJdenEqp,12.89735742,77.66177493
HUdUCYOAJdenEqp,12.89796254,77.66271787
ScgcaucJECrFfGe,12.93782338,77.72114062
KQhVwYmeuhPTIqL,12.93689998,77.58284249
GlmDXBpZkKwFesP,13.0373792,77.59092141
srYaFSPJQFcRgml,12.88263361,77.5425114
xRGFWCHBZDXSKj,13.01136548,77.66101956
xRGFWCHBZDXSKjo,13.01222574,77.66105703
MRHSdQFIDOlRQwz,12.92338194,77.57068102
thQYEAGzUjtwywXJ,13.08657548,77.4891679
thQYEAGzUjtwywX,13.08606034,77.48862866
msyZkQCnytrrvKL,12.99488938,77.57754303
kEDpixMOtvfQNvf,13.0502483,77.59035637
MsjMLZxrZzaHZHO,13.08269815,77.51348578
bmbOcheNJGixSSz,12.96401654,77.73245203
wVopbpQvWGcrViO,12.98131965,77.73006087
SpAfpYsRfBsQxlF,12.98771751,77.46639907
BCJjvqRYWyJzEtS,12.97377046,77.67595233
iHMklaXJfxMdgQcH,12.99231779,77.570172
iHMklaXJfxMdgQc,12.99330646,77.56961702
sAuliVldafNJVwGp,12.90165858,77.66071913
sAuliVldafNJVwG,12.90081565,77.6601828
jVccuhTYcfIYxSM,12.96433904,77.57666015
jJvCaNhMbqvSmqg,13.07069476,77.52924951
gxRHRMFzRPTokVs,13.01207971,77.72180966
AsajIxKQybkjvQF,12.94422887,77.50590149
ZCYoSljFGWxJbxP,13.08514989,77.51624902
uHYyMlcKJSxGSZc,12.89791238,77.68089567
zZIupeEKxZtyCCMx,12.91377322,77.53679601
zZIupeEKxZtyCCM,12.91415236,77.53714956
mORrRVNmCjQZOcH,13.07952517,77.65797764
EciiipLGQcnbfKP,13.08021013,77.64575316
ukkVDAMqxXIYKZN,12.87455689,77.69800179
wgDNtPhOIxjTeCoi,12.90678891,77.46935279
wgDNtPhOIxjTeCo,12.90724361,77.4689836
nJAhIwyxbHNuCNCY,12.96053593,77.67954894
nJAhIwyxbHNuCNC,12.95985685,77.67993829
apKhWAGuGCvbiBs,13.04631177,77.69646097
rCesVEfVUNUdNK,12.95900142,77.51549538
rCesVEfPVUNUdNK,12.95964948,77.51621718
tpzAPLONBONmeWU,12.90817127,77.69073088
InBraGZZlUitgTF,12.91525066,77.57430634
ojXLDCcmLUqHkxlm,12.89275074,77.4721588
ojXLDCcmLUqHkxl,12.89193064,77.47305853
dtKmoHrcPXUAriy,13.05649459,77.69349404
zcSpifAxHNBlzlk,13.03561479,77.47653292
jGGcnXsGyZmDMxG,12.94041482,77.54100511
WxBnBnOGjJvGULg,12.94446275,77.48692823
QInAtVnMpPloKIf,12.96047061,77.69896174
KENpGwLMkDTsJrb,13.0877614,77.68513854
oYKKxuGypYKzqYT,12.97973547,77.44554441
aodGzEbcJyKBosd,12.95791084,77.56532963
AyhEpkfiFZztNgU,12.88889415,77.67854992
DGSxKQkKBlIHiG,12.96022989,77.55808472
DGSxKQkKBlIHHiG,12.95977022,77.55846577
GLMfQBbGPwUIOVb,13.01919517,77.65371996
TIILAaNdSpOPZAC,13.0835773,77.70719443
fdlUtBnSFRjwblx,13.07768646,77.6062028
eiKcqQiFLConHrl,13.00101113,77.60418652
ZfydHkDZteMfFzF,12.88349084,77.71378817
oYeqBQJXlCBbZiw,12.90417586,77.7341823
TpIyWatsPxMQvDs,13.04918865,77.68672877
KWsKZiVIncrXjXN,12.9427325,77.48587551
zSXQenDjMCbsmXx,13.00425554,77.46266713
ZCvbJvTrylHkcQm,13.09060828,77.56772684
SFtQsJKUSWDtPaJ,12.89479591,77.74171048
tmirTtRvYzzvwKS,12.91807434,77.71741433
HeKCOSPwjBTFpUE,13.00705533,77.70024225
TVPRooAHwHVfWC,12.88669029,77.61233648
TVPRooqAHwHVfWC,12.88652253,77.61196741
HGdLMSQmPZNheuC,12.91569062,77.66676519
teFqDGIDVsrKUN,13.03346863,77.46318022
teFqwDGIDVsrKUN,13.0338048,77.46391074
EWaKcyMFMuYynCo,12.9513497,77.53092212
rnDIOvnVfoJXtIm,12.90579863,77.52531877
lYhyMNVUPWXuMuI,13.05888096,77.60191108
QDtVeiTnOfJTOKN,12.99745379,77.66072962
MIsryOTFlmDbKJD,13.01422509,77.666165
AmmocWrqVjjuavv,12.99077828,77.68970557
QmGaLpaGvdzfdlQ,12.98258468,77.65975604
YHFpUkzSNhkkpre,12.9306921,77.53507864
gVZTmdvwcNeOYBzc,12.97910755,77.47543319
gVZTmdvwcNeOYBz,12.97967416,77.47502908
TvgDvjEkWjqHaBx,13.08857222,77.54732315
AjxUXHQotJZujMw,12.95341398,77.53393848
npkonscfCroxqXb,13.08245556,77.6684868
djeunshGIeFvXSvb,12.9884703,77.49434369
djeunshGIeFvXSv,12.98900316,77.49409616
TDOkAxrTfJqkcKo,12.87157052,77.73451747
TsjLHegJauljenu,12.99692998,77.68470429
lTYtPrZRczdYNE,13.08049899,77.67723514
lTYctPrZRczdYNE,13.07971767,77.67739215
yApFxbxjcbbElRZ,12.96350077,77.55017544
RlrGRKgfoEBHMxm,12.86879781,77.72413451
oSuLdYBMwjuGIaJ,13.02409502,77.67271234
jAwYYDvoTdNZYtD,12.86809616,77.73621589
bCFjKUkwnVQXOro,12.93214594,77.5038383
tXCQfyZpiirsiux,13.00506601,77.54294419
sxqISGyKWiflOy,12.98010657,77.54838013
sxSqISGyKWiflOy,12.97985069,77.54816711
ovmheMEMeInJetZ,13.03267714,77.62414168
gympmmhnUTvKlpl,13.05852991,77.61431371
sqrCRBbtnvOXSkT,12.98981471,77.60122017
oWelfauRQcHerYx,13.06011833,77.52949157
dxFFXtQkXTAFsWu,13.05698231,77.63605381
BQJfbGqxGPCPxE,12.94034427,77.52391386
BQJfbGqxGPCPxEf,12.94119872,77.52443842
RlgFHMfcbyPwMFE,12.94241329,77.45212215
cfnutaIeBXqXEria,13.08834331,77.54855087
cfnutaIeBXqXEri,13.08908306,77.5482557
ZlavcHRqSiyvxlP,13.06836089,77.65972515
UdgHBMKpkbATmbg,13.05140164,77.45678735
DsuMVCLPrfUnfzE,13.06015866,77.47157791
DTNhAJJIGCiKioK,12.98611627,77.71945878
IagjILMYNuJoLYV,13.00490504,77.72961213
tcPvMDmfBNFSMwr,12.98594215,77.71835044
nVOTTEpRWjtOOep,12.99298111,77.5169888
dXmcoztngkDgFf,13.0792392,77.54849231
tdXmcoztngkDgFf,13.07886819,77.54948201
fNDdTMeDWyqgBVF,13.03842085,77.69321907
bpGKhvOFqARLIKO,12.91614365,77.58402567
qGRPqzbHMJYuvzA,12.93981647,77.68164055
emCHbRSRPIBItKr,12.98305538,77.50560017
apRAbaVbfUwtGLN,12.85692621,77.64701274
yLguRHRgkZArThb,13.03004014,77.53392343
LEIacStiJUVkRnB,12.98665801,77.52217735
JRoIVoaTgjannPH,12.9359012,77.66320101
MYkNHExilSFmew,12.935057,77.65225251
MYkNzHExilSFmew,12.93541417,77.65241835
UqPgroOWgJBnCoE,12.85370157,77.67120548
olgNNTsJtnvKbrL,12.94435157,77.52904205
cCmIuqpDmCBWWJw,13.07034318,77.5535865
lpKjwgyzsCdDyct,12.85324025,77.67024461
JQsdvBvwymhdPXvh,12.89245137,77.68543078
JQsdvBvwymhdPXv,12.89289478,77.68530221
cnNJqfvOnSUNKru,12.88961424,77.46839477
sCTOERlVkKboIZt,12.95311119,77.63830444
EynomEfNzdrDdcw,12.85628725,77.66144779
UkhPKgqftZouAsI,12.89378631,77.73945101
GyZDkPzfwgxVSqU,13.04096129,77.48823466
zvtocXFZnwPIDFO,12.93867748,77.74230791
VJlkMBecCGhqnUJ,12.89095012,77.66635309
GqyQxpAbvLvsYLL,12.92782506,77.61069886
yxzfGgbQzVNenbG,12.95609695,77.58960866
KiWPnPDgLFXYwLt,12.99236158,77.74027474
PRlUsWKAVSPznjS,12.9590253,77.59486324
ERZKuEZVzeSvdzw,12.99567328,77.56728122
ctLBBZIANDFBLtx,13.06690585,77.70717664
qnxBGwFmqYFWyJ,12.94465768,77.65311215
qnxBGwFmqYuFWyJ,12.94528098,77.65342081
qANSvaxYEMHlqFn,13.09595119,77.48235588
irPHOWGidgmxqnk,12.97873484,77.69196604
cccjdOUeIbJWAEL,12.94232937,77.45193184
GqzMitlKUHntMtJ,13.00320242,77.61142157
nKghuzVRoSQphSm,13.02478073,77.52259653
DdPHIfHRamyOGyR,12.86623001,77.65120383
eAdrZLMWkkZOosM,12.87643576,77.68594067
JZXZMaGrOSwZzTs,13.06966237,77.69049194
JSrWrkQDZSWTptG,12.87022462,77.49856361
qRukVyBsxyfSrwE,12.90312142,77.56646567
LwCwjITRcxqUffC,13.02379789,77.56068156
WOaNDnEesBtXJFx,12.95160552,77.6158451
MertXIEGTmtONJw,12.90631838,77.51213782
rSlQqcbuMoibWZY,12.92642281,77.72972036
KDYTJwbCzntwvDV,12.99203175,77.5104934
YbXLsqIsDmCoAOV,12.9841357,77.50346037
wpvhxkvjVwmjfmy,12.94179143,77.49947828
uzinyBORidCDXzO,13.07684543,77.58653781
FlryzAEaZrtErHH,12.86314232,77.47360438
TmLBImcgkOGdgLA,12.87933661,77.5685709
doiGdLwUUrKXTWvD,13.03560007,77.54219048
doiGdLwUUrKXTWv,13.036527,77.54199884
UsnebWgRvCPwoq,12.88893453,77.51598464
tUsnebWgRvCPwoq,12.8889269,77.51654404
wadSiPCfidnRnlk,12.99309759,77.61485979
MTZtKIiGCvTwtYG,12.91009632,77.60376213
LUSbYWNVDddbPvB,13.00413223,77.64791983
wBeiGfbmHbwCPk,12.89180314,77.65386652
wBeibGfbmHbwCPk,12.89150794,77.6542512
SteOXWgwhGkxFdA,12.91792442,77.59732437
POrsHNGsiUWgrdN,12.96387139,77.47653707
pWrHWDadWExZAl,12.93836626,77.59194533
pWrHWDadlWExZAl,12.93782746,77.59212456
rzTHrQVVcISFjG,13.06163081,77.6440096
